{
  "source": {
    "description": "NETC Plaza Master PDF (Plaza Sub Type = STATE)",
    "pdf_path": "data/sources/netc/Plaza_Master_Feb_26_2ddf69d321.pdf",
    "extracted_at": "2026-05-01T16:07:24.993Z",
    "extractor": "scripts/extractNetcStatePlazas.js",
    "tool": "pdfjs-dist text geometry + column bands"
  },
  "count": 715,
  "notes": {
    "rates": "Not present in NETC master; fill via external sources if needed.",
    "geo_parse_failures": 2
  },
  "plazas": [
    {
      "netc_plaza_code": "312036",
      "plaza_name": "Kundali",
      "concessionaire_type": "Conc.",
      "plaza_type": "TOLL",
      "plaza_sub_type": "STATE",
      "state_name": "Haryana",
      "city": "Kundali",
      "concessionaire_name": "Skylarkworld",
      "geo_codes_raw": "28.911104,77.025054",
      "latitude": "28.911104",
      "longitude": "77.025054",
      "pdf_page": 18
    },
    {
      "netc_plaza_code": "312037",
      "plaza_name": "Kharkhoda",
      "concessionaire_type": "Conc.",
      "plaza_type": "TOLL",
      "plaza_sub_type": "STATE",
      "state_name": "Haryana",
      "city": "Kharkhoda",
      "concessionaire_name": "Skylarkworld",
      "geo_codes_raw": "28.858488,76.946385",
      "latitude": "28.858488",
      "longitude": "76.946385",
      "pdf_page": 18
    },
    {
      "netc_plaza_code": "312038",
      "plaza_name": "Asoda",
      "concessionaire_type": "Conc.",
      "plaza_type": "TOLL",
      "plaza_sub_type": "STATE",
      "state_name": "Haryana",
      "city": "Asoda",
      "concessionaire_name": "Skylarkworld",
      "geo_codes_raw": "28.725089,76.846528",
      "latitude": "28.725089",
      "longitude": "76.846528",
      "pdf_page": 18
    },
    {
      "netc_plaza_code": "312039",
      "plaza_name": "Badli",
      "concessionaire_type": "Conc.",
      "plaza_type": "TOLL",
      "plaza_sub_type": "STATE",
      "state_name": "Haryana",
      "city": "Badli",
      "concessionaire_name": "Skylarkworld",
      "geo_codes_raw": "28.575254,76.820849",
      "latitude": "28.575254",
      "longitude": "76.820849",
      "pdf_page": 18
    },
    {
      "netc_plaza_code": "312040",
      "plaza_name": "Farukhnagar",
      "concessionaire_type": "Conc.",
      "plaza_type": "TOLL",
      "plaza_sub_type": "STATE",
      "state_name": "Haryana",
      "city": "Farukhnagar",
      "concessionaire_name": "Skylarkworld",
      "geo_codes_raw": "28.455781,76.856801",
      "latitude": "28.455781",
      "longitude": "76.856801",
      "pdf_page": 18
    },
    {
      "netc_plaza_code": "312041",
      "plaza_name": "PATODI",
      "concessionaire_type": "Conc.",
      "plaza_type": "TOLL",
      "plaza_sub_type": "STATE",
      "state_name": "Haryana",
      "city": "Patodi",
      "concessionaire_name": "Skylarkworld",
      "geo_codes_raw": "28.391538,76.86769",
      "latitude": "28.391538",
      "longitude": "76.86769",
      "pdf_page": 18
    },
    {
      "netc_plaza_code": "312042",
      "plaza_name": "MANESHAR-7A",
      "concessionaire_type": "Conc.",
      "plaza_type": "TOLL",
      "plaza_sub_type": "STATE",
      "state_name": "Haryana",
      "city": "Manesar",
      "concessionaire_name": "Skylarkworld",
      "geo_codes_raw": "28.326367,76.890515",
      "latitude": "28.326367",
      "longitude": "76.890515",
      "pdf_page": 19
    },
    {
      "netc_plaza_code": "312043",
      "plaza_name": "MANESHAR-7B",
      "concessionaire_type": "Conc.",
      "plaza_type": "TOLL",
      "plaza_sub_type": "STATE",
      "state_name": "Haryana",
      "city": "Manesar",
      "concessionaire_name": "Skylarkworld",
      "geo_codes_raw": "28.310995,76.895142",
      "latitude": "28.310995",
      "longitude": "76.895142",
      "pdf_page": 19
    },
    {
      "netc_plaza_code": "312044",
      "plaza_name": "TAURU",
      "concessionaire_type": "Conc.",
      "plaza_type": "TOLL",
      "plaza_sub_type": "STATE",
      "state_name": "Haryana",
      "city": "Tauru",
      "concessionaire_name": "Skylarkworld",
      "geo_codes_raw": "28.219695,76.997181",
      "latitude": "28.219695",
      "longitude": "76.997181",
      "pdf_page": 19
    },
    {
      "netc_plaza_code": "312045",
      "plaza_name": "NUH",
      "concessionaire_type": "Conc.",
      "plaza_type": "TOLL",
      "plaza_sub_type": "STATE",
      "state_name": "Haryana",
      "city": "Nuh",
      "concessionaire_name": "Skylarkworld",
      "geo_codes_raw": "28.179226,77.074981",
      "latitude": "28.179226",
      "longitude": "77.074981",
      "pdf_page": 19
    },
    {
      "netc_plaza_code": "312046",
      "plaza_name": "PALWAL",
      "concessionaire_type": "Conc.",
      "plaza_type": "TOLL",
      "plaza_sub_type": "STATE",
      "state_name": "Haryana",
      "city": "Palwal",
      "concessionaire_name": "Skylarkworld",
      "geo_codes_raw": "28.102706,77.3052728.333604",
      "latitude": "28.102706",
      "longitude": "77.305272",
      "pdf_page": 19
    },
    {
      "netc_plaza_code": "312074",
      "plaza_name": "Khalilpur SH Toll Plaza",
      "concessionaire_type": "BOT",
      "plaza_type": "TOLL",
      "plaza_sub_type": "STATE",
      "state_name": "Haryana",
      "city": "Mewat",
      "concessionaire_name": "PATH IndiaLtd",
      "geo_codes_raw": "28.157553,77.152888",
      "latitude": "28.157553",
      "longitude": "77.152888",
      "pdf_page": 21
    },
    {
      "netc_plaza_code": "320013",
      "plaza_name": "ALEP MainPlaza 21",
      "concessionaire_type": "PF",
      "plaza_type": "TOLL",
      "plaza_sub_type": "STATE",
      "state_name": "UttarPradesh",
      "city": "Fatehabad",
      "concessionaire_name": "Eagle InfraIndia Ltd",
      "geo_codes_raw": "27.053626,78.277169",
      "latitude": "27.053626",
      "longitude": "78.277169",
      "pdf_page": 23
    },
    {
      "netc_plaza_code": "320014",
      "plaza_name": "ALEP RampPlaza 27",
      "concessionaire_type": "PF",
      "plaza_type": "TOLL",
      "plaza_sub_type": "STATE",
      "state_name": "UttarPradesh",
      "city": "Fatehabad",
      "concessionaire_name": "Eagle InfraIndia Ltd",
      "geo_codes_raw": "27.038767,78.335211",
      "latitude": "27.038767",
      "longitude": "78.335211",
      "pdf_page": 23
    },
    {
      "netc_plaza_code": "320015",
      "plaza_name": "ALEP RampPlaza 54",
      "concessionaire_type": "PF",
      "plaza_type": "TOLL",
      "plaza_sub_type": "STATE",
      "state_name": "UttarPradesh",
      "city": "Shikohabad",
      "concessionaire_name": "Eagle InfraIndia Ltd",
      "geo_codes_raw": "26.998814,78.58165",
      "latitude": "26.998814",
      "longitude": "78.58165",
      "pdf_page": 23
    },
    {
      "netc_plaza_code": "320016",
      "plaza_name": "ALEP RampPlaza 77",
      "concessionaire_type": "PF",
      "plaza_type": "TOLL",
      "plaza_sub_type": "STATE",
      "state_name": "UttarPradesh",
      "city": "Etawah",
      "concessionaire_name": "Eagle InfraIndia Ltd",
      "geo_codes_raw": "26.966501,78.812958",
      "latitude": "26.966501",
      "longitude": "78.812958",
      "pdf_page": 23
    },
    {
      "netc_plaza_code": "320017",
      "plaza_name": "ALEP RampPlaza 92",
      "concessionaire_type": "PF",
      "plaza_type": "TOLL",
      "plaza_sub_type": "STATE",
      "state_name": "UttarPradesh",
      "city": "Saifai",
      "concessionaire_name": "Eagle InfraIndia Ltd",
      "geo_codes_raw": "27.015798,78.946526",
      "latitude": "27.015798",
      "longitude": "78.946526",
      "pdf_page": 23
    },
    {
      "netc_plaza_code": "320018",
      "plaza_name": "ALEP RampPlaza 108",
      "concessionaire_type": "PF",
      "plaza_type": "TOLL",
      "plaza_sub_type": "STATE",
      "state_name": "UttarPradesh",
      "city": "Etawah",
      "concessionaire_name": "Eagle InfraIndia Ltd",
      "geo_codes_raw": "26.949591,79.076293",
      "latitude": "26.949591",
      "longitude": "79.076293",
      "pdf_page": 23
    },
    {
      "netc_plaza_code": "320019",
      "plaza_name": "ALEP RampPlaza 116",
      "concessionaire_type": "PF",
      "plaza_type": "TOLL",
      "plaza_sub_type": "STATE",
      "state_name": "UttarPradesh",
      "city": "Etawah",
      "concessionaire_name": "Eagle InfraIndia Ltd",
      "geo_codes_raw": "26.913797,79.158391",
      "latitude": "26.913797",
      "longitude": "79.158391",
      "pdf_page": 23
    },
    {
      "netc_plaza_code": "320020",
      "plaza_name": "ALEP RampPlaza 154",
      "concessionaire_type": "PF",
      "plaza_type": "TOLL",
      "plaza_sub_type": "STATE",
      "state_name": "UttarPradesh",
      "city": "Saurikh",
      "concessionaire_name": "Eagle InfraIndia Ltd",
      "geo_codes_raw": "26.913619,79.160199",
      "latitude": "26.913619",
      "longitude": "79.160199",
      "pdf_page": 23
    },
    {
      "netc_plaza_code": "320021",
      "plaza_name": "ALEP RampPlaza 171",
      "concessionaire_type": "PF",
      "plaza_type": "TOLL",
      "plaza_sub_type": "STATE",
      "state_name": "UttarPradesh",
      "city": "Taki Gram",
      "concessionaire_name": "Eagle InfraIndia Ltd",
      "geo_codes_raw": "27.070904,79.653549",
      "latitude": "27.070904",
      "longitude": "79.653549",
      "pdf_page": 23
    },
    {
      "netc_plaza_code": "320022",
      "plaza_name": "ALEP RampPlaza 193",
      "concessionaire_type": "PF",
      "plaza_type": "TOLL",
      "plaza_sub_type": "STATE",
      "state_name": "UttarPradesh",
      "city": "Kannauj",
      "concessionaire_name": "Eagle InfraIndia Ltd",
      "geo_codes_raw": "26.98693,79.814441",
      "latitude": "26.98693",
      "longitude": "79.814441",
      "pdf_page": 23
    },
    {
      "netc_plaza_code": "320023",
      "plaza_name": "ALEP RampPlaza220",
      "concessionaire_type": "PF",
      "plaza_type": "TOLL",
      "plaza_sub_type": "STATE",
      "state_name": "UttarPradesh",
      "city": "Kanpur",
      "concessionaire_name": "Eagle InfraIndia Ltd",
      "geo_codes_raw": "26.912105,80.027101",
      "latitude": "26.912105",
      "longitude": "80.027101",
      "pdf_page": 24
    },
    {
      "netc_plaza_code": "320024",
      "plaza_name": "ALEP RampPlaza 238",
      "concessionaire_type": "PF",
      "plaza_type": "TOLL",
      "plaza_sub_type": "STATE",
      "state_name": "UttarPradesh",
      "city": "Unnao",
      "concessionaire_name": "Eagle InfraIndia Ltd",
      "geo_codes_raw": "26.926112,80.200743",
      "latitude": "26.926112",
      "longitude": "80.200743",
      "pdf_page": 24
    },
    {
      "netc_plaza_code": "320025",
      "plaza_name": "ALEP MainPlaza 290",
      "concessionaire_type": "PF",
      "plaza_type": "TOLL",
      "plaza_sub_type": "STATE",
      "state_name": "UttarPradesh",
      "city": "Lucknow",
      "concessionaire_name": "Eagle InfraIndia Ltd",
      "geo_codes_raw": "26.845635,80.710711",
      "latitude": "26.845635",
      "longitude": "80.710711",
      "pdf_page": 24
    },
    {
      "netc_plaza_code": "345084",
      "plaza_name": "Dhamnod Toll Plaza",
      "concessionaire_type": "Conc.",
      "plaza_type": "TOLL",
      "plaza_sub_type": "STATE",
      "state_name": "MadhyaPradesh",
      "city": "Dhamnod",
      "concessionaire_name": "R.M.N.Tollways PvtLtd",
      "geo_codes_raw": "22.216325,75.513255",
      "latitude": "22.216325",
      "longitude": "75.513255",
      "pdf_page": 42
    },
    {
      "netc_plaza_code": "345085",
      "plaza_name": "Ratanpur PataPlaza",
      "concessionaire_type": "Conc.",
      "plaza_type": "TOLL",
      "plaza_sub_type": "STATE",
      "state_name": "MadhyaPradesh",
      "city": "Khargaone",
      "concessionaire_name": "R.M.N.Tollways PvtLtd",
      "geo_codes_raw": "22.246727,76.001647",
      "latitude": "22.246727",
      "longitude": "76.001647",
      "pdf_page": 42
    },
    {
      "netc_plaza_code": "345086",
      "plaza_name": "Bhopal Vidisha Toll Plaza",
      "concessionaire_type": "Conc.",
      "plaza_type": "TOLL",
      "plaza_sub_type": "STATE",
      "state_name": "MadhyaPradesh",
      "city": "Sukhisewania",
      "concessionaire_name": "R.M.N.Tollways PvtLtd",
      "geo_codes_raw": "23.371140,77.502870",
      "latitude": "23.371140",
      "longitude": "77.502870",
      "pdf_page": 42
    },
    {
      "netc_plaza_code": "345087",
      "plaza_name": "Chanatoriya(Sagar) Toll Plaza",
      "concessionaire_type": "Conc.",
      "plaza_type": "TOLL",
      "plaza_sub_type": "STATE",
      "state_name": "MadhyaPradesh",
      "city": "Sagar",
      "concessionaire_name": "RSI STONEWORLD PVTLTD",
      "geo_codes_raw": "23.887470,78.870000",
      "latitude": "23.887470",
      "longitude": "78.870000",
      "pdf_page": 43
    },
    {
      "netc_plaza_code": "345088",
      "plaza_name": "Bansa (Damoh)Toll Plaza",
      "concessionaire_type": "Conc.",
      "plaza_type": "TOLL",
      "plaza_sub_type": "STATE",
      "state_name": "MadhyaPradesh",
      "city": "Damoh",
      "concessionaire_name": "RSI STONEWORLD PVTLTD",
      "geo_codes_raw": "23.805957,79.370837",
      "latitude": "23.805957",
      "longitude": "79.370837",
      "pdf_page": 43
    },
    {
      "netc_plaza_code": "345089",
      "plaza_name": "Ghatabillod Toll Plaza",
      "concessionaire_type": "Conc.",
      "plaza_type": "TOLL",
      "plaza_sub_type": "STATE",
      "state_name": "MadhyaPradesh",
      "city": "Pithampur",
      "concessionaire_name": "MPRDC",
      "geo_codes_raw": "22.644110,75.568497",
      "latitude": "22.644110",
      "longitude": "75.568497",
      "pdf_page": 43
    },
    {
      "netc_plaza_code": "360042",
      "plaza_name": "Mathur Toll Plaza",
      "concessionaire_type": "PF",
      "plaza_type": "TOLL",
      "plaza_sub_type": "STATE",
      "state_name": "TamilNadu",
      "city": "Madharam",
      "concessionaire_name": "NHAI",
      "geo_codes_raw": "13.1762697,80.2447934",
      "latitude": "13.176269",
      "longitude": "80.244793",
      "pdf_page": 51
    },
    {
      "netc_plaza_code": "392022",
      "plaza_name": "Adityapur TollBridge",
      "concessionaire_type": "BOT",
      "plaza_type": "TOLL",
      "plaza_sub_type": "STATE",
      "state_name": "Jharkhand",
      "city": "Adityapur",
      "concessionaire_name": "AdityapurToll BridgeComp Ltd",
      "geo_codes_raw": "22.7998439,86.1444717",
      "latitude": "22.799843",
      "longitude": "86.144471",
      "pdf_page": 58
    },
    {
      "netc_plaza_code": "517000",
      "plaza_name": "AloogroundManali",
      "concessionaire_type": "Conc.",
      "plaza_type": "TOLL",
      "plaza_sub_type": "STATE",
      "state_name": "HimachalPradesh",
      "city": "Manali",
      "concessionaire_name": "TourismDevelopment Manali",
      "geo_codes_raw": "32.1998010,77.1880080",
      "latitude": "32.199801",
      "longitude": "77.188008",
      "pdf_page": 59
    },
    {
      "netc_plaza_code": "517001",
      "plaza_name": "SumaropaLocation",
      "concessionaire_type": "Conc.",
      "plaza_type": "TOLL",
      "plaza_sub_type": "STATE",
      "state_name": "HimachalPradesh",
      "city": "Kasol",
      "concessionaire_name": "SADADevelopment FeeBarrier",
      "geo_codes_raw": "32.006100,77.277700",
      "latitude": "32.006100",
      "longitude": "77.277700",
      "pdf_page": 59
    },
    {
      "netc_plaza_code": "517002",
      "plaza_name": "Jagatsukh",
      "concessionaire_type": "Conc.",
      "plaza_type": "TOLL",
      "plaza_sub_type": "STATE",
      "state_name": "HimachalPradesh",
      "city": "Manali",
      "concessionaire_name": "TourismDevelopment Manali",
      "geo_codes_raw": "32.196130,77.203707",
      "latitude": "32.196130",
      "longitude": "77.203707",
      "pdf_page": 59
    },
    {
      "netc_plaza_code": "517003",
      "plaza_name": "Atal Tunnel Toll",
      "concessionaire_type": "PF",
      "plaza_type": "TOLL",
      "plaza_sub_type": "STATE",
      "state_name": "HimachalPradesh",
      "city": "Manali",
      "concessionaire_name": "SADA",
      "geo_codes_raw": "32.44013,77.16510",
      "latitude": "32.44013",
      "longitude": "77.16510",
      "pdf_page": 59
    },
    {
      "netc_plaza_code": "520001",
      "plaza_name": "ALEP RampPlaza 269",
      "concessionaire_type": "PF",
      "plaza_type": "TOLL",
      "plaza_sub_type": "STATE",
      "state_name": "UttarPradesh",
      "city": "Sandila",
      "concessionaire_name": "Eagle InfraIndia Ltd",
      "geo_codes_raw": "26.9047203,80.48483",
      "latitude": "26.904720",
      "longitude": "80.48483",
      "pdf_page": 59
    },
    {
      "netc_plaza_code": "520002",
      "plaza_name": "ALEP RampPlaza 284",
      "concessionaire_type": "PF",
      "plaza_type": "TOLL",
      "plaza_sub_type": "STATE",
      "state_name": "UttarPradesh",
      "city": "Lucknow",
      "concessionaire_name": "Eagle InfraIndia Ltd",
      "geo_codes_raw": "26.8506024,80.6686972",
      "latitude": "26.850602",
      "longitude": "80.668697",
      "pdf_page": 59
    },
    {
      "netc_plaza_code": "520003",
      "plaza_name": "ALEP RampPlaza 204",
      "concessionaire_type": "PF",
      "plaza_type": "TOLL",
      "plaza_sub_type": "STATE",
      "state_name": "UttarPradesh",
      "city": "Kannauj",
      "concessionaire_name": "Eagle InfraIndia Ltd",
      "geo_codes_raw": "26.929426,79.88097",
      "latitude": "26.929426",
      "longitude": "79.88097",
      "pdf_page": 59
    },
    {
      "netc_plaza_code": "520004",
      "plaza_name": "ALEP RampPlaza 101",
      "concessionaire_type": "PF",
      "plaza_type": "TOLL",
      "plaza_sub_type": "STATE",
      "state_name": "UttarPradesh",
      "city": "Saifai",
      "concessionaire_name": "Eagle InfraIndia Ltd",
      "geo_codes_raw": "27.0033012,78.9769078",
      "latitude": "27.003301",
      "longitude": "78.976907",
      "pdf_page": 59
    },
    {
      "netc_plaza_code": "520005",
      "plaza_name": "Jewar Toll Plaza",
      "concessionaire_type": "BOT",
      "plaza_type": "TOLL",
      "plaza_sub_type": "STATE",
      "state_name": "UttarPradesh",
      "city": "Jewar",
      "concessionaire_name": "JaypeeInfratechLtd",
      "geo_codes_raw": "28.114650,77.575418",
      "latitude": "28.114650",
      "longitude": "77.575418",
      "pdf_page": 59
    },
    {
      "netc_plaza_code": "520006",
      "plaza_name": "Agra Toll Plaza",
      "concessionaire_type": "BOT",
      "plaza_type": "TOLL",
      "plaza_sub_type": "STATE",
      "state_name": "UttarPradesh",
      "city": "Agra",
      "concessionaire_name": "JaypeeInfratechLtd",
      "geo_codes_raw": "27.303578,78.003327",
      "latitude": "27.303578",
      "longitude": "78.003327",
      "pdf_page": 59
    },
    {
      "netc_plaza_code": "520007",
      "plaza_name": "Mathura Toll Plaza",
      "concessionaire_type": "BOT",
      "plaza_type": "TOLL",
      "plaza_sub_type": "STATE",
      "state_name": "UttarPradesh",
      "city": "Mathura",
      "concessionaire_name": "JaypeeInfratechLtd",
      "geo_codes_raw": "27.660315,77.733317",
      "latitude": "27.660315",
      "longitude": "77.733317",
      "pdf_page": 59
    },
    {
      "netc_plaza_code": "520008",
      "plaza_name": "Rehan Kalan Toll Plaza",
      "concessionaire_type": "Conc.",
      "plaza_type": "TOLL",
      "plaza_sub_type": "STATE",
      "state_name": "UttarPradesh",
      "city": "Agra",
      "concessionaire_name": "KhalatkarConstruction",
      "geo_codes_raw": "27.1888,78.00405",
      "latitude": "27.1888",
      "longitude": "78.00405",
      "pdf_page": 59
    },
    {
      "netc_plaza_code": "520009",
      "plaza_name": "Bajna Ramp Toll Plaza",
      "concessionaire_type": "BOT",
      "plaza_type": "TOLL",
      "plaza_sub_type": "STATE",
      "state_name": "UttarPradesh",
      "city": "Mathura",
      "concessionaire_name": "JaypeeInfratechLtd",
      "geo_codes_raw": "27.883269,77.666004",
      "latitude": "27.883269",
      "longitude": "77.666004",
      "pdf_page": 59
    },
    {
      "netc_plaza_code": "520010",
      "plaza_name": "Mahurakalan",
      "concessionaire_type": "Conc.",
      "plaza_type": "TOLL",
      "plaza_sub_type": "STATE",
      "state_name": "UttarPradesh",
      "city": "Lucknow",
      "concessionaire_name": "PrakashAsphalting& Toll Hwys",
      "geo_codes_raw": "26.7199300,81.1301830",
      "latitude": "26.719930",
      "longitude": "81.130183",
      "pdf_page": 59
    },
    {
      "netc_plaza_code": "520011",
      "plaza_name": "Gharkuiya",
      "concessionaire_type": "Conc.",
      "plaza_type": "TOLL",
      "plaza_sub_type": "STATE",
      "state_name": "UttarPradesh",
      "city": "Barabanki",
      "concessionaire_name": "PrakashAsphalting& Toll Hwys",
      "geo_codes_raw": "26.6131760,81.3957130",
      "latitude": "26.613176",
      "longitude": "81.395713",
      "pdf_page": 59
    },
    {
      "netc_plaza_code": "520012",
      "plaza_name": "Unchgaon",
      "concessionaire_type": "Conc.",
      "plaza_type": "TOLL",
      "plaza_sub_type": "STATE",
      "state_name": "UttarPradesh",
      "city": "Raebareilly",
      "concessionaire_name": "PrakashAsphalting& Toll Hwys",
      "geo_codes_raw": "26.5727020,81.5586920",
      "latitude": "26.572702",
      "longitude": "81.558692",
      "pdf_page": 60
    },
    {
      "netc_plaza_code": "520013",
      "plaza_name": "Haliyapur",
      "concessionaire_type": "Conc.",
      "plaza_type": "TOLL",
      "plaza_sub_type": "STATE",
      "state_name": "UttarPradesh",
      "city": "Sultanpur",
      "concessionaire_name": "PrakashAsphalting& Toll Hwys",
      "geo_codes_raw": "26.5125810,81.7669160",
      "latitude": "26.512581",
      "longitude": "81.766916",
      "pdf_page": 60
    },
    {
      "netc_plaza_code": "520014",
      "plaza_name": "Kurebhar",
      "concessionaire_type": "Conc.",
      "plaza_type": "TOLL",
      "plaza_sub_type": "STATE",
      "state_name": "UttarPradesh",
      "city": "Sultanpur",
      "concessionaire_name": "PrakashAsphalting& Toll Hwys",
      "geo_codes_raw": "26.3895420,82.1262510",
      "latitude": "26.389542",
      "longitude": "82.126251",
      "pdf_page": 60
    },
    {
      "netc_plaza_code": "520015",
      "plaza_name": "Semri",
      "concessionaire_type": "Conc.",
      "plaza_type": "TOLL",
      "plaza_sub_type": "STATE",
      "state_name": "UttarPradesh",
      "city": "Sultanpur",
      "concessionaire_name": "PrakashAsphalting& Toll Hwys",
      "geo_codes_raw": "26.3568250,82.2606750",
      "latitude": "26.356825",
      "longitude": "82.260675",
      "pdf_page": 60
    },
    {
      "netc_plaza_code": "520016",
      "plaza_name": "Dostpur",
      "concessionaire_type": "Conc.",
      "plaza_type": "TOLL",
      "plaza_sub_type": "STATE",
      "state_name": "UttarPradesh",
      "city": "Sultanpur",
      "concessionaire_name": "PrakashAsphalting& Toll Hwys",
      "geo_codes_raw": "26.2826030,82.4749250",
      "latitude": "26.282603",
      "longitude": "82.474925",
      "pdf_page": 60
    },
    {
      "netc_plaza_code": "520017",
      "plaza_name": "Bhelara",
      "concessionaire_type": "Conc.",
      "plaza_type": "TOLL",
      "plaza_sub_type": "STATE",
      "state_name": "UttarPradesh",
      "city": "Sultanpur",
      "concessionaire_name": "PrakashAsphalting& Toll Hwys",
      "geo_codes_raw": "26.2269380,82.6707030",
      "latitude": "26.226938",
      "longitude": "82.670703",
      "pdf_page": 60
    },
    {
      "netc_plaza_code": "520018",
      "plaza_name": "Fulvariya",
      "concessionaire_type": "Conc.",
      "plaza_type": "TOLL",
      "plaza_sub_type": "STATE",
      "state_name": "UttarPradesh",
      "city": "Azamgarh",
      "concessionaire_name": "PrakashAsphalting& Toll Hwys",
      "geo_codes_raw": "26.1599090,82.8628360",
      "latitude": "26.159909",
      "longitude": "82.862836",
      "pdf_page": 60
    },
    {
      "netc_plaza_code": "520019",
      "plaza_name": "Sehda",
      "concessionaire_type": "Conc.",
      "plaza_type": "TOLL",
      "plaza_sub_type": "STATE",
      "state_name": "UttarPradesh",
      "city": "Azamgarh",
      "concessionaire_name": "PrakashAsphalting& Toll Hwys",
      "geo_codes_raw": "26.1147010,83.1344730",
      "latitude": "26.114701",
      "longitude": "83.134473",
      "pdf_page": 60
    },
    {
      "netc_plaza_code": "520020",
      "plaza_name": "Sathiyon",
      "concessionaire_type": "Conc.",
      "plaza_type": "TOLL",
      "plaza_sub_type": "STATE",
      "state_name": "UttarPradesh",
      "city": "Azamgarh",
      "concessionaire_name": "PrakashAsphalting& Toll Hwys",
      "geo_codes_raw": "26.0434380,83.2770380",
      "latitude": "26.043438",
      "longitude": "83.277038",
      "pdf_page": 60
    },
    {
      "netc_plaza_code": "520021",
      "plaza_name": "Raipur-Baghpur",
      "concessionaire_type": "Conc.",
      "plaza_type": "TOLL",
      "plaza_sub_type": "STATE",
      "state_name": "UttarPradesh",
      "city": "Ghazipur",
      "concessionaire_name": "PrakashAsphalting& Toll Hwys",
      "geo_codes_raw": "25.8340830,83.5641280",
      "latitude": "25.834083",
      "longitude": "83.564128",
      "pdf_page": 60
    },
    {
      "netc_plaza_code": "520022",
      "plaza_name": "Belsari",
      "concessionaire_type": "Conc.",
      "plaza_type": "TOLL",
      "plaza_sub_type": "STATE",
      "state_name": "UttarPradesh",
      "city": "Ghazipur",
      "concessionaire_name": "PrakashAsphalting& Toll Hwys",
      "geo_codes_raw": "25.6376960,83.8398360",
      "latitude": "25.637696",
      "longitude": "83.839836",
      "pdf_page": 60
    },
    {
      "netc_plaza_code": "520023",
      "plaza_name": "RTP36 Yamuna Toll Plaza",
      "concessionaire_type": "Conc.",
      "plaza_type": "TOLL",
      "plaza_sub_type": "STATE",
      "state_name": "UttarPradesh",
      "city": "Jewar",
      "concessionaire_name": "M/s. JaypeeInfratechLtd",
      "geo_codes_raw": "28.141426,77.574548",
      "latitude": "28.141426",
      "longitude": "77.574548",
      "pdf_page": 60
    },
    {
      "netc_plaza_code": "520024",
      "plaza_name": "Rohana Khurd Toll Plaza",
      "concessionaire_type": "Conc.",
      "plaza_type": "TOLL",
      "plaza_sub_type": "STATE",
      "state_name": "UttarPradesh",
      "city": "Muzaffarnagar",
      "concessionaire_name": "DEOBANDHIGHWAYSPVT LTD",
      "geo_codes_raw": "29.594939,77.687261",
      "latitude": "29.594939",
      "longitude": "77.687261",
      "pdf_page": 61
    },
    {
      "netc_plaza_code": "520025",
      "plaza_name": "Kolki Toll Plaza",
      "concessionaire_type": "Conc.",
      "plaza_type": "TOLL",
      "plaza_sub_type": "STATE",
      "state_name": "UttarPradesh",
      "city": "Saharanpur",
      "concessionaire_name": "DEOBANDHIGHWAYSPVT LTD",
      "geo_codes_raw": "29.938956,77.654644",
      "latitude": "29.938956",
      "longitude": "77.654644",
      "pdf_page": 61
    },
    {
      "netc_plaza_code": "520026",
      "plaza_name": "Fatehpur Toll Plaza",
      "concessionaire_type": "Conc.",
      "plaza_type": "TOLL",
      "plaza_sub_type": "STATE",
      "state_name": "UttarPradesh",
      "city": "Mirzapur",
      "concessionaire_name": "ACPTOLLWAYSPRIVATELTD",
      "geo_codes_raw": "25.165278,83.035833",
      "latitude": "25.165278",
      "longitude": "83.035833",
      "pdf_page": 61
    },
    {
      "netc_plaza_code": "520027",
      "plaza_name": "Ahraurha TFCB-1A",
      "concessionaire_type": "Conc.",
      "plaza_type": "TOLL",
      "plaza_sub_type": "STATE",
      "state_name": "UttarPradesh",
      "city": "Mirzapur",
      "concessionaire_name": "ACPTOLLWAYSPRIVATELTD",
      "geo_codes_raw": "24.995278,83.019444",
      "latitude": "24.995278",
      "longitude": "83.019444",
      "pdf_page": 61
    },
    {
      "netc_plaza_code": "520028",
      "plaza_name": "Lodhi Toll Plaza",
      "concessionaire_type": "Conc.",
      "plaza_type": "TOLL",
      "plaza_sub_type": "STATE",
      "state_name": "UttarPradesh",
      "city": "Sonbhadra",
      "concessionaire_name": "ACPTOLLWAYSPRIVATELTD",
      "geo_codes_raw": "24.628056,83.055833",
      "latitude": "24.628056",
      "longitude": "83.055833",
      "pdf_page": 61
    },
    {
      "netc_plaza_code": "520029",
      "plaza_name": "Maloghat Toll Plaza",
      "concessionaire_type": "Conc.",
      "plaza_type": "TOLL",
      "plaza_sub_type": "STATE",
      "state_name": "UttarPradesh",
      "city": "Sonbhadra",
      "concessionaire_name": "ACPTOLLWAYSPRIVATELTD",
      "geo_codes_raw": "24.332500,83.067222",
      "latitude": "24.332500",
      "longitude": "83.067222",
      "pdf_page": 61
    },
    {
      "netc_plaza_code": "520030",
      "plaza_name": "ALEP RampPlaza 133",
      "concessionaire_type": "Conc.",
      "plaza_type": "TOLL",
      "plaza_sub_type": "STATE",
      "state_name": "UttarPradesh",
      "city": "SahakarGlobal Ltd",
      "concessionaire_name": "SahakarGlobal Ltd",
      "geo_codes_raw": "26.909319,79.331535",
      "latitude": "26.909319",
      "longitude": "79.331535",
      "pdf_page": 61
    },
    {
      "netc_plaza_code": "536002",
      "plaza_name": "HSTL TP01-Khadki",
      "concessionaire_type": "Conc.",
      "plaza_type": "TOLL",
      "plaza_sub_type": "STATE",
      "state_name": "Gujarat",
      "city": "Khadki",
      "concessionaire_name": "L&T HSTL",
      "geo_codes_raw": "22.6479969,73.5197764",
      "latitude": "22.647996",
      "longitude": "73.519776",
      "pdf_page": 62
    },
    {
      "netc_plaza_code": "536003",
      "plaza_name": "HSTLTP02-GamanBariyanamuvada",
      "concessionaire_type": "Conc.",
      "plaza_type": "TOLL",
      "plaza_sub_type": "STATE",
      "state_name": "Gujarat",
      "city": "GamanBariya namuvada",
      "concessionaire_name": "L&T HSTL",
      "geo_codes_raw": "23.0127692,73.6180402",
      "latitude": "23.012769",
      "longitude": "73.618040",
      "pdf_page": 62
    },
    {
      "netc_plaza_code": "536004",
      "plaza_name": "HSTL TP03-Galiya Danti",
      "concessionaire_type": "Conc.",
      "plaza_type": "TOLL",
      "plaza_sub_type": "STATE",
      "state_name": "Gujarat",
      "city": "GaliyaDanti",
      "concessionaire_name": "L&T HSTL",
      "geo_codes_raw": "23.3639618,73.5152351",
      "latitude": "23.363961",
      "longitude": "73.515235",
      "pdf_page": 62
    },
    {
      "netc_plaza_code": "536005",
      "plaza_name": "HSTL TP04-Gajan",
      "concessionaire_type": "Conc.",
      "plaza_type": "TOLL",
      "plaza_sub_type": "STATE",
      "state_name": "Gujarat",
      "city": "Gajan",
      "concessionaire_name": "L&T HSTL",
      "geo_codes_raw": "23.5051103,73.3033763",
      "latitude": "23.505110",
      "longitude": "73.303376",
      "pdf_page": 62
    },
    {
      "netc_plaza_code": "536006",
      "plaza_name": "Bamanbore Toll Plaza",
      "concessionaire_type": "PF",
      "plaza_type": "TOLL",
      "plaza_sub_type": "STATE",
      "state_name": "Gujarat",
      "city": "Surendranagar",
      "concessionaire_name": "PWD Rajkot",
      "geo_codes_raw": "22.4097,71.0155",
      "latitude": "22.4097",
      "longitude": "71.0155",
      "pdf_page": 62
    },
    {
      "netc_plaza_code": "536007",
      "plaza_name": "Bagodara Toll Plaza",
      "concessionaire_type": "PF",
      "plaza_type": "TOLL",
      "plaza_sub_type": "STATE",
      "state_name": "Gujarat",
      "city": "Ahmedabad",
      "concessionaire_name": "PWD Rajkot",
      "geo_codes_raw": "22.6307,72.1793",
      "latitude": "22.6307",
      "longitude": "72.1793",
      "pdf_page": 62
    },
    {
      "netc_plaza_code": "536008",
      "plaza_name": "AMTL-TP-01Vasna-Iyava",
      "concessionaire_type": "Conc.",
      "plaza_type": "TOLL",
      "plaza_sub_type": "STATE",
      "state_name": "Gujarat",
      "city": "Vasna-Iyava",
      "concessionaire_name": "L&TAhmedabad-MaliyaTollway",
      "geo_codes_raw": "23.0073,72.3477",
      "latitude": "23.0073",
      "longitude": "72.3477",
      "pdf_page": 62
    },
    {
      "netc_plaza_code": "536009",
      "plaza_name": "AMTL-TP02-Malvan",
      "concessionaire_type": "Conc.",
      "plaza_type": "TOLL",
      "plaza_sub_type": "STATE",
      "state_name": "Gujarat",
      "city": "Malvan",
      "concessionaire_name": "L&TAhmedabad-MaliyaTollway",
      "geo_codes_raw": "23.0709,71.7850",
      "latitude": "23.0709",
      "longitude": "71.7850",
      "pdf_page": 62
    },
    {
      "netc_plaza_code": "536010",
      "plaza_name": "AMTL-TP03-Soldi",
      "concessionaire_type": "Conc.",
      "plaza_type": "TOLL",
      "plaza_sub_type": "STATE",
      "state_name": "Gujarat",
      "city": "Soldi",
      "concessionaire_name": "L&TAhmedabad-MaliyaTollway",
      "geo_codes_raw": "23.0009,71.3728",
      "latitude": "23.0009",
      "longitude": "71.3728",
      "pdf_page": 62
    },
    {
      "netc_plaza_code": "536011",
      "plaza_name": "AMTL-TP04-Aniyari",
      "concessionaire_type": "Conc.",
      "plaza_type": "TOLL",
      "plaza_sub_type": "STATE",
      "state_name": "Gujarat",
      "city": "Aniyari",
      "concessionaire_name": "L&TAhmedabad-MaliyaTollway",
      "geo_codes_raw": "23.0725,70.8583",
      "latitude": "23.0725",
      "longitude": "70.8583",
      "pdf_page": 62
    },
    {
      "netc_plaza_code": "536012",
      "plaza_name": "Vanpari-Paddhari Toll Plaza",
      "concessionaire_type": "Conc.",
      "plaza_type": "TOLL",
      "plaza_sub_type": "STATE",
      "state_name": "Gujarat",
      "city": "Rajkot",
      "concessionaire_name": "L&T",
      "geo_codes_raw": "22.4460011,70.5835058",
      "latitude": "22.446001",
      "longitude": "70.583505",
      "pdf_page": 62
    },
    {
      "netc_plaza_code": "536013",
      "plaza_name": "Soyal Toll Plaza",
      "concessionaire_type": "Conc.",
      "plaza_type": "TOLL",
      "plaza_sub_type": "STATE",
      "state_name": "Gujarat",
      "city": "Jamnagar",
      "concessionaire_name": "L&T",
      "geo_codes_raw": "22.5501006,70.3491712",
      "latitude": "22.550100",
      "longitude": "70.349171",
      "pdf_page": 62
    },
    {
      "netc_plaza_code": "536014",
      "plaza_name": "JamnagarBypass-Vadinar",
      "concessionaire_type": "Conc.",
      "plaza_type": "TOLL",
      "plaza_sub_type": "STATE",
      "state_name": "Gujarat",
      "city": "Jamnagar",
      "concessionaire_name": "L&T",
      "geo_codes_raw": "22.4271343,69.9139827",
      "latitude": "22.427134",
      "longitude": "69.913982",
      "pdf_page": 62
    },
    {
      "netc_plaza_code": "536015",
      "plaza_name": "Bochasan Toll Plaza",
      "concessionaire_type": "Conc.",
      "plaza_type": "TOLL",
      "plaza_sub_type": "STATE",
      "state_name": "Gujarat",
      "city": "Anand",
      "concessionaire_name": "RKCInfrabuilt",
      "geo_codes_raw": "22.4133460,72.8518924",
      "latitude": "22.413346",
      "longitude": "72.851892",
      "pdf_page": 62
    },
    {
      "netc_plaza_code": "536017",
      "plaza_name": "Vataman Toll Plaza",
      "concessionaire_type": "PF",
      "plaza_type": "TOLL",
      "plaza_sub_type": "STATE",
      "state_name": "Gujarat",
      "city": "Vataman",
      "concessionaire_name": "MAXLINK",
      "geo_codes_raw": "22.504330,72.426520",
      "latitude": "22.504330",
      "longitude": "72.426520",
      "pdf_page": 63
    },
    {
      "netc_plaza_code": "536018",
      "plaza_name": "Vadodra Toll Plaza",
      "concessionaire_type": "Conc.",
      "plaza_type": "TOLL",
      "plaza_sub_type": "STATE",
      "state_name": "Gujarat",
      "city": "Vadodra",
      "concessionaire_name": "GujaratRoad andInfra Co Ltd",
      "geo_codes_raw": "22.353256,73.236924",
      "latitude": "22.353256",
      "longitude": "73.236924",
      "pdf_page": 63
    },
    {
      "netc_plaza_code": "536019",
      "plaza_name": "Halol Toll Plaza",
      "concessionaire_type": "Conc.",
      "plaza_type": "TOLL",
      "plaza_sub_type": "STATE",
      "state_name": "Gujarat",
      "city": "Halol",
      "concessionaire_name": "GujaratRoad andInfra Co Ltd",
      "geo_codes_raw": "22.489873,73.465586",
      "latitude": "22.489873",
      "longitude": "73.465586",
      "pdf_page": 63
    },
    {
      "netc_plaza_code": "536020",
      "plaza_name": "Adalaj Toll Plaza",
      "concessionaire_type": "Conc.",
      "plaza_type": "TOLL",
      "plaza_sub_type": "STATE",
      "state_name": "Gujarat",
      "city": "Adalaj",
      "concessionaire_name": "GujaratRoad andInfra Co Ltd",
      "geo_codes_raw": "23.186490,72.560200",
      "latitude": "23.186490",
      "longitude": "72.560200",
      "pdf_page": 63
    },
    {
      "netc_plaza_code": "536021",
      "plaza_name": "Mehsana Toll Plaza",
      "concessionaire_type": "Conc.",
      "plaza_type": "TOLL",
      "plaza_sub_type": "STATE",
      "state_name": "Gujarat",
      "city": "Mehsana",
      "concessionaire_name": "GujaratRoad andInfra Co Ltd",
      "geo_codes_raw": "23.527490,72.388130",
      "latitude": "23.527490",
      "longitude": "72.388130",
      "pdf_page": 63
    },
    {
      "netc_plaza_code": "536022",
      "plaza_name": "Alva Toll Plaza",
      "concessionaire_type": "Conc.",
      "plaza_type": "TOLL",
      "plaza_sub_type": "STATE",
      "state_name": "Gujarat",
      "city": "Bayad",
      "concessionaire_name": "AshirwadSmartInfralink",
      "geo_codes_raw": "23.2730374,73.2044535",
      "latitude": "23.273037",
      "longitude": "73.204453",
      "pdf_page": 63
    },
    {
      "netc_plaza_code": "536023",
      "plaza_name": "Bakrol Toll Plaza",
      "concessionaire_type": "Conc.",
      "plaza_type": "TOLL",
      "plaza_sub_type": "STATE",
      "state_name": "Gujarat",
      "city": "Ahmedabad",
      "concessionaire_name": "AhmedabadRing RoadInfra",
      "geo_codes_raw": "22.935230,72.519760",
      "latitude": "22.935230",
      "longitude": "72.519760",
      "pdf_page": 63
    },
    {
      "netc_plaza_code": "536024",
      "plaza_name": "Kansari Toll Plaza",
      "concessionaire_type": "BOT",
      "plaza_type": "TOLL",
      "plaza_sub_type": "STATE",
      "state_name": "Gujarat",
      "city": "Deesa",
      "concessionaire_name": "Ranjit TollRoad Pvt Ltd",
      "geo_codes_raw": "24.314930,72.146200",
      "latitude": "24.314930",
      "longitude": "72.146200",
      "pdf_page": 63
    },
    {
      "netc_plaza_code": "536025",
      "plaza_name": "Kuchhvada Toll Plaza",
      "concessionaire_type": "BOT",
      "plaza_type": "TOLL",
      "plaza_sub_type": "STATE",
      "state_name": "Gujarat",
      "city": "Deesa",
      "concessionaire_name": "Ranjit TollRoad Pvt Ltd",
      "geo_codes_raw": "24.458300,72.269800",
      "latitude": "24.458300",
      "longitude": "72.269800",
      "pdf_page": 63
    },
    {
      "netc_plaza_code": "536026",
      "plaza_name": "Sanathal Toll Plaza",
      "concessionaire_type": "Conc.",
      "plaza_type": "TOLL",
      "plaza_sub_type": "STATE",
      "state_name": "Gujarat",
      "city": "Ahmedabad",
      "concessionaire_name": "AhmedabadRing RoadInfra Ltd",
      "geo_codes_raw": "22.974110,72.473050",
      "latitude": "22.974110",
      "longitude": "72.473050",
      "pdf_page": 63
    },
    {
      "netc_plaza_code": "536027",
      "plaza_name": "Vaishnodevi Toll Plaza",
      "concessionaire_type": "Conc.",
      "plaza_type": "TOLL",
      "plaza_sub_type": "STATE",
      "state_name": "Gujarat",
      "city": "Ahmedabad",
      "concessionaire_name": "AhmedabadRing RoadInfra Ltd",
      "geo_codes_raw": "23.128240,72.517730",
      "latitude": "23.128240",
      "longitude": "72.517730",
      "pdf_page": 63
    },
    {
      "netc_plaza_code": "536032",
      "plaza_name": "Ramol Toll Plaza",
      "concessionaire_type": "Conc.",
      "plaza_type": "TOLL",
      "plaza_sub_type": "STATE",
      "state_name": "Gujarat",
      "city": "Ahmedabad",
      "concessionaire_name": "AhmedabadRing RoadInfra Ltd",
      "geo_codes_raw": "22.984070,72.663800",
      "latitude": "22.984070",
      "longitude": "72.663800",
      "pdf_page": 63
    },
    {
      "netc_plaza_code": "536033",
      "plaza_name": "Ranasan Toll Plaza",
      "concessionaire_type": "Conc.",
      "plaza_type": "TOLL",
      "plaza_sub_type": "STATE",
      "state_name": "Gujarat",
      "city": "Ahmedabad",
      "concessionaire_name": "AhmedabadRing RoadInfra Ltd",
      "geo_codes_raw": "23.096350,72.686190",
      "latitude": "23.096350",
      "longitude": "72.686190",
      "pdf_page": 63
    },
    {
      "netc_plaza_code": "536034",
      "plaza_name": "Bhat Toll Plaza",
      "concessionaire_type": "Conc.",
      "plaza_type": "TOLL",
      "plaza_sub_type": "STATE",
      "state_name": "Gujarat",
      "city": "Ahmedabad",
      "concessionaire_name": "AhmedabadRing RoadInfra Ltd",
      "geo_codes_raw": "23.115640,72.642100",
      "latitude": "23.115640",
      "longitude": "72.642100",
      "pdf_page": 64
    },
    {
      "netc_plaza_code": "536035",
      "plaza_name": "Tragad Toll Plaza",
      "concessionaire_type": "Conc.",
      "plaza_type": "TOLL",
      "plaza_sub_type": "STATE",
      "state_name": "Gujarat",
      "city": "Ahmedabad",
      "concessionaire_name": "AhmedabadRing RoadInfra Ltd",
      "geo_codes_raw": "23.128540,72.592570",
      "latitude": "23.128540",
      "longitude": "72.592570",
      "pdf_page": 64
    },
    {
      "netc_plaza_code": "536044",
      "plaza_name": "Sarasamba",
      "concessionaire_type": "aire",
      "plaza_type": "TOLL",
      "plaza_sub_type": "STATE",
      "state_name": "Karnataka",
      "city": "Kalaburagi",
      "concessionaire_name": "KRDCL",
      "geo_codes_raw": "17.5809346,76.4218373",
      "latitude": "17.580934",
      "longitude": "76.421837",
      "pdf_page": 64
    },
    {
      "netc_plaza_code": "536045",
      "plaza_name": "Pattana",
      "concessionaire_type": "aire",
      "plaza_type": "TOLL",
      "plaza_sub_type": "STATE",
      "state_name": "Karnataka",
      "city": "Kalaburagi",
      "concessionaire_name": "KRDCL",
      "geo_codes_raw": "17.3970162,76.7061871",
      "latitude": "17.397016",
      "longitude": "76.706187",
      "pdf_page": 64
    },
    {
      "netc_plaza_code": "536046",
      "plaza_name": "Sannur",
      "concessionaire_type": "aire",
      "plaza_type": "TOLL",
      "plaza_sub_type": "STATE",
      "state_name": "Karnataka",
      "city": "Kalaburagi",
      "concessionaire_name": "KRDCL",
      "geo_codes_raw": "17.2883106,77.0015798",
      "latitude": "17.288310",
      "longitude": "77.001579",
      "pdf_page": 64
    },
    {
      "netc_plaza_code": "536047",
      "plaza_name": "Jawahar Nagar",
      "concessionaire_type": "aire",
      "plaza_type": "TOLL",
      "plaza_sub_type": "STATE",
      "state_name": "Karnataka",
      "city": "Kalaburagi",
      "concessionaire_name": "KRDCL",
      "geo_codes_raw": "17.1287679,77.3493783",
      "latitude": "17.128767",
      "longitude": "77.349378",
      "pdf_page": 64
    },
    {
      "netc_plaza_code": "536053",
      "plaza_name": "Sirsod Toll Plaza",
      "concessionaire_type": "Conc.",
      "plaza_type": "TOLL",
      "plaza_sub_type": "STATE",
      "state_name": "MadhyaPradesh",
      "city": "Shivpuri",
      "concessionaire_name": "R.M.NTollwaysPvt. Ltd.",
      "geo_codes_raw": "25.490262,77.494286",
      "latitude": "25.490262",
      "longitude": "77.494286",
      "pdf_page": 64
    },
    {
      "netc_plaza_code": "536054",
      "plaza_name": "Karahal Toll Plaza",
      "concessionaire_type": "Conc.",
      "plaza_type": "TOLL",
      "plaza_sub_type": "STATE",
      "state_name": "MadhyaPradesh",
      "city": "Goras",
      "concessionaire_name": "R.M.NTollwaysPvt. Ltd.",
      "geo_codes_raw": "25.503944,77.073194",
      "latitude": "25.503944",
      "longitude": "77.073194",
      "pdf_page": 64
    },
    {
      "netc_plaza_code": "536055",
      "plaza_name": "NeoPolis",
      "concessionaire_type": "BOT",
      "plaza_type": "TOLL",
      "plaza_sub_type": "STATE",
      "state_name": "Telangana",
      "city": "Hyderabad",
      "concessionaire_name": "IRB",
      "geo_codes_raw": "17.4107638888889,78.3153361111111",
      "latitude": "17.410763",
      "longitude": "78.315336",
      "pdf_page": 64
    },
    {
      "netc_plaza_code": "536056",
      "plaza_name": "Mallampet",
      "concessionaire_type": "BOT",
      "plaza_type": "TOLL",
      "plaza_sub_type": "STATE",
      "state_name": "Telangana",
      "city": "Hyderabad",
      "concessionaire_name": "IRB",
      "geo_codes_raw": "17.5609388888889,78.3682",
      "latitude": "17.5609388888889",
      "longitude": "78.3682",
      "pdf_page": 65
    },
    {
      "netc_plaza_code": "536062",
      "plaza_name": "Moka Toll Plaza",
      "concessionaire_type": "Conc.",
      "plaza_type": "TOLL",
      "plaza_sub_type": "STATE",
      "state_name": "Karnataka",
      "city": "AshokNagar",
      "concessionaire_name": "BharathiConstructions",
      "geo_codes_raw": "15.194774,76.999231",
      "latitude": "15.194774",
      "longitude": "76.999231",
      "pdf_page": 65
    },
    {
      "netc_plaza_code": "536064",
      "plaza_name": "RATWAI",
      "concessionaire_type": "Conc.",
      "plaza_type": "TOLL",
      "plaza_sub_type": "STATE",
      "state_name": "MadhyaPradesh",
      "city": "GWALIOR",
      "concessionaire_name": "M/SDHARMENDRA SINGHTOMAR",
      "geo_codes_raw": "26.2424490,78.3131290",
      "latitude": "26.242449",
      "longitude": "78.313129",
      "pdf_page": 65
    },
    {
      "netc_plaza_code": "536065",
      "plaza_name": "CHITTORA",
      "concessionaire_type": "Conc.",
      "plaza_type": "TOLL",
      "plaza_sub_type": "STATE",
      "state_name": "MadhyaPradesh",
      "city": "GOHAD",
      "concessionaire_name": "M/SDHARMENDRA SINGHTOMAR",
      "geo_codes_raw": "26.3317760,78.4896370",
      "latitude": "26.331776",
      "longitude": "78.489637",
      "pdf_page": 65
    },
    {
      "netc_plaza_code": "536092",
      "plaza_name": "RTP11",
      "concessionaire_type": "BOT",
      "plaza_type": "TOLL",
      "plaza_sub_type": "STATE",
      "state_name": "UttarPradesh",
      "city": "GautamBuddhaNagar",
      "concessionaire_name": "JaypeeInfratechLimited",
      "geo_codes_raw": "28.358774,77.540415",
      "latitude": "28.358774",
      "longitude": "77.540415",
      "pdf_page": 67
    },
    {
      "netc_plaza_code": "536107",
      "plaza_name": "Kallapura Toll Plaza",
      "concessionaire_type": "Conc.",
      "plaza_type": "TOLL",
      "plaza_sub_type": "STATE",
      "state_name": "Karnataka",
      "city": "Bangalore",
      "concessionaire_name": "KRDCL",
      "geo_codes_raw": "14.0805,75.5345",
      "latitude": "14.0805",
      "longitude": "75.5345",
      "pdf_page": 68
    },
    {
      "netc_plaza_code": "536108",
      "plaza_name": "Kutrahalli Toll Plaza",
      "concessionaire_type": "Conc.",
      "plaza_type": "TOLL",
      "plaza_sub_type": "STATE",
      "state_name": "Karnataka",
      "city": "Bangalore",
      "concessionaire_name": "KRDCL",
      "geo_codes_raw": "14.2849,75.3058",
      "latitude": "14.2849",
      "longitude": "75.3058",
      "pdf_page": 68
    },
    {
      "netc_plaza_code": "536125",
      "plaza_name": "HEDIYALA Toll Plaza",
      "concessionaire_type": "Conc.",
      "plaza_type": "TOLL",
      "plaza_sub_type": "STATE",
      "state_name": "Karnataka",
      "city": "Bangalore",
      "concessionaire_name": "KRDCL",
      "geo_codes_raw": "14.547139,75.547111",
      "latitude": "14.547139",
      "longitude": "75.547111",
      "pdf_page": 68
    },
    {
      "netc_plaza_code": "536126",
      "plaza_name": "HAMSABHAVI Toll Plaza",
      "concessionaire_type": "Conc.",
      "plaza_type": "TOLL",
      "plaza_sub_type": "STATE",
      "state_name": "Karnataka",
      "city": "Bangalore",
      "concessionaire_name": "KRDCL",
      "geo_codes_raw": "14.561583,75.346972",
      "latitude": "14.561583",
      "longitude": "75.346972",
      "pdf_page": 69
    },
    {
      "netc_plaza_code": "536127",
      "plaza_name": "DANNUR Toll Plaza",
      "concessionaire_type": "Conc.",
      "plaza_type": "TOLL",
      "plaza_sub_type": "STATE",
      "state_name": "Karnataka",
      "city": "Bangalore",
      "concessionaire_name": "KRDCL",
      "geo_codes_raw": "16.154250,76.085778",
      "latitude": "16.154250",
      "longitude": "76.085778",
      "pdf_page": 69
    },
    {
      "netc_plaza_code": "536128",
      "plaza_name": "DEVARAHULABAGAL Toll Plaza",
      "concessionaire_type": "Conc.",
      "plaza_type": "TOLL",
      "plaza_sub_type": "STATE",
      "state_name": "Karnataka",
      "city": "Bangalore",
      "concessionaire_name": "KRDCL",
      "geo_codes_raw": "16.417556,76.250806",
      "latitude": "16.417556",
      "longitude": "76.250806",
      "pdf_page": 69
    },
    {
      "netc_plaza_code": "536129",
      "plaza_name": "Kaladera Toll Plaza",
      "concessionaire_type": "Conc.",
      "plaza_type": "TOLL",
      "plaza_sub_type": "STATE",
      "state_name": "Rajasthan",
      "city": "Chomu",
      "concessionaire_name": "RSRDC",
      "geo_codes_raw": "27.236583563264666,76.00713684534075",
      "latitude": "27.236583",
      "longitude": "76.007136",
      "pdf_page": 69
    },
    {
      "netc_plaza_code": "536130",
      "plaza_name": "Dholiya Toll Plaza",
      "concessionaire_type": "Conc.",
      "plaza_type": "TOLL",
      "plaza_sub_type": "STATE",
      "state_name": "Rajasthan",
      "city": "Rajgard",
      "concessionaire_name": "RSRDC",
      "geo_codes_raw": "28.66784491659097,75.208264",
      "latitude": "28.667844",
      "longitude": "75.208264",
      "pdf_page": 69
    },
    {
      "netc_plaza_code": "536131",
      "plaza_name": "Angiya Toll Plaza",
      "concessionaire_type": "Conc.",
      "plaza_type": "TOLL",
      "plaza_sub_type": "STATE",
      "state_name": "Gujarat",
      "city": "Angiya",
      "concessionaire_name": "Maxlink",
      "geo_codes_raw": "2671087723.32546,69.31038",
      "latitude": "23.32546",
      "longitude": "69.31038",
      "pdf_page": 69
    },
    {
      "netc_plaza_code": "536132",
      "plaza_name": "Deshalpar Toll Plaza",
      "concessionaire_type": "Conc.",
      "plaza_type": "TOLL",
      "plaza_sub_type": "STATE",
      "state_name": "Gujarat",
      "city": "Deshalpar",
      "concessionaire_name": "Maxlink",
      "geo_codes_raw": "23.19571,69.47114",
      "latitude": "23.19571",
      "longitude": "69.47114",
      "pdf_page": 69
    },
    {
      "netc_plaza_code": "536133",
      "plaza_name": "NagarjunasagarEMC Checkpost",
      "concessionaire_type": "Conc",
      "plaza_type": "TOLL",
      "plaza_sub_type": "STATE",
      "state_name": "AndhraPradesh",
      "city": "Macharla",
      "concessionaire_name": "Project TigerMarkapur",
      "geo_codes_raw": "16.567540,79.33326",
      "latitude": "16.567540",
      "longitude": "79.33326",
      "pdf_page": 69
    },
    {
      "netc_plaza_code": "536134",
      "plaza_name": "EthipothalaEMC Checkpost",
      "concessionaire_type": "Conc",
      "plaza_type": "TOLL",
      "plaza_sub_type": "STATE",
      "state_name": "AndhraPradesh",
      "city": "Macharla",
      "concessionaire_name": "Project TigerMarkapur",
      "geo_codes_raw": "16.541244,79.380177",
      "latitude": "16.541244",
      "longitude": "79.380177",
      "pdf_page": 69
    },
    {
      "netc_plaza_code": "536135",
      "plaza_name": "Narajamalatanda EMC Checkpost",
      "concessionaire_type": "Conc",
      "plaza_type": "TOLL",
      "plaza_sub_type": "STATE",
      "state_name": "AndhraPradesh",
      "city": "Yerragondapalem",
      "concessionaire_name": "Project TigerMarkapur",
      "geo_codes_raw": "16.1643569,79.2997719",
      "latitude": "16.164356",
      "longitude": "79.299771",
      "pdf_page": 69
    },
    {
      "netc_plaza_code": "536136",
      "plaza_name": "SirigiripaduEMC Checkpost",
      "concessionaire_type": "Conc",
      "plaza_type": "TOLL",
      "plaza_sub_type": "STATE",
      "state_name": "AndhraPradesh",
      "city": "Macharla",
      "concessionaire_name": "Project TigerMarkapur",
      "geo_codes_raw": "16.3077535,79.3296011",
      "latitude": "16.307753",
      "longitude": "79.329601",
      "pdf_page": 69
    },
    {
      "netc_plaza_code": "536140",
      "plaza_name": "Achhad BorderCheckpost",
      "concessionaire_type": "Bot",
      "plaza_type": "TOLL",
      "plaza_sub_type": "STATE",
      "state_name": "Maharashtra",
      "city": "Palghar",
      "concessionaire_name": "MBCPNL",
      "geo_codes_raw": "20.07538,72.913338",
      "latitude": "20.07538",
      "longitude": "72.913338",
      "pdf_page": 69
    },
    {
      "netc_plaza_code": "536141",
      "plaza_name": "HadakhedBorderCheckpost",
      "concessionaire_type": "Bot",
      "plaza_type": "TOLL",
      "plaza_sub_type": "STATE",
      "state_name": "Maharashtra",
      "city": "Dhule",
      "concessionaire_name": "MBCPNL",
      "geo_codes_raw": "21.2538,74.5846",
      "latitude": "21.2538",
      "longitude": "74.5846",
      "pdf_page": 69
    },
    {
      "netc_plaza_code": "536142",
      "plaza_name": "NavapurBorderCheckpost",
      "concessionaire_type": "Bot",
      "plaza_type": "TOLL",
      "plaza_sub_type": "STATE",
      "state_name": "Maharashtra",
      "city": "Nandurbar",
      "concessionaire_name": "MBCPNL",
      "geo_codes_raw": "21.16132,73.741458",
      "latitude": "21.16132",
      "longitude": "73.741458",
      "pdf_page": 70
    },
    {
      "netc_plaza_code": "536143",
      "plaza_name": "Kagal CheckPost",
      "concessionaire_type": "BOT",
      "plaza_type": "TOLL",
      "plaza_sub_type": "STATE",
      "state_name": "Maharashtra",
      "city": "Kolhapur",
      "concessionaire_name": "MBCPNL",
      "geo_codes_raw": "16.334688,74.19526",
      "latitude": "16.334688",
      "longitude": "74.19526",
      "pdf_page": 70
    },
    {
      "netc_plaza_code": "536144",
      "plaza_name": "Deori BorderCheckpost",
      "concessionaire_type": "Bot",
      "plaza_type": "TOLL",
      "plaza_sub_type": "STATE",
      "state_name": "Maharashtra",
      "city": "Gondia",
      "concessionaire_name": "MBCPNL",
      "geo_codes_raw": "21.43425,80.263055",
      "latitude": "21.43425",
      "longitude": "80.263055",
      "pdf_page": 70
    },
    {
      "netc_plaza_code": "536145",
      "plaza_name": "Omerga BorderCheckpost",
      "concessionaire_type": "Bot",
      "plaza_type": "TOLL",
      "plaza_sub_type": "STATE",
      "state_name": "Maharashtra",
      "city": "Osmanabad",
      "concessionaire_name": "MBCPNL",
      "geo_codes_raw": "17.495067,76.462114",
      "latitude": "17.495067",
      "longitude": "76.462114",
      "pdf_page": 70
    },
    {
      "netc_plaza_code": "536146",
      "plaza_name": "MandrupBorderCheckpost",
      "concessionaire_type": "Bot",
      "plaza_type": "TOLL",
      "plaza_sub_type": "STATE",
      "state_name": "Maharashtra",
      "city": "Solapur",
      "concessionaire_name": "MBCPNL",
      "geo_codes_raw": "17.265351,75.51263",
      "latitude": "17.265351",
      "longitude": "75.51263",
      "pdf_page": 70
    },
    {
      "netc_plaza_code": "536147",
      "plaza_name": "PimpalkuttiBorderCheckpost",
      "concessionaire_type": "Bot",
      "plaza_type": "TOLL",
      "plaza_sub_type": "STATE",
      "state_name": "Maharashtra",
      "city": "Yavatmal",
      "concessionaire_name": "MBCPNL",
      "geo_codes_raw": "19.504530,78.342330",
      "latitude": "19.504530",
      "longitude": "78.342330",
      "pdf_page": 70
    },
    {
      "netc_plaza_code": "536148",
      "plaza_name": "Ramtek BorderCheckpost",
      "concessionaire_type": "Bot",
      "plaza_type": "TOLL",
      "plaza_sub_type": "STATE",
      "state_name": "Maharashtra",
      "city": "Nagpur",
      "concessionaire_name": "MBCPNL",
      "geo_codes_raw": "21.255385,79.171631",
      "latitude": "21.255385",
      "longitude": "79.171631",
      "pdf_page": 70
    },
    {
      "netc_plaza_code": "536150",
      "plaza_name": "MarawadeCheck Post",
      "concessionaire_type": "BOT",
      "plaza_type": "TOLL",
      "plaza_sub_type": "STATE",
      "state_name": "Maharashtra",
      "city": "Solapur",
      "concessionaire_name": "MBCPNL",
      "geo_codes_raw": "17.241330,75.342526",
      "latitude": "17.241330",
      "longitude": "75.342526",
      "pdf_page": 70
    },
    {
      "netc_plaza_code": "536151",
      "plaza_name": "Saoner CheckPost",
      "concessionaire_type": "Bot",
      "plaza_type": "TOLL",
      "plaza_sub_type": "STATE",
      "state_name": "Maharashtra",
      "city": "Nagpur",
      "concessionaire_name": "MBCPNL",
      "geo_codes_raw": "21.29053,78.4611",
      "latitude": "21.29053",
      "longitude": "78.4611",
      "pdf_page": 70
    },
    {
      "netc_plaza_code": "536152",
      "plaza_name": "Purnad CheckPost",
      "concessionaire_type": "BOT",
      "plaza_type": "TOLL",
      "plaza_sub_type": "STATE",
      "state_name": "Maharashtra",
      "city": "Jalgaon",
      "concessionaire_name": "MBCPNL",
      "geo_codes_raw": "21.63665,76.52762",
      "latitude": "21.63665",
      "longitude": "76.52762",
      "pdf_page": 70
    },
    {
      "netc_plaza_code": "536153",
      "plaza_name": "Borgaon CheckPost",
      "concessionaire_type": "BOT",
      "plaza_type": "TOLL",
      "plaza_sub_type": "STATE",
      "state_name": "Maharashtra",
      "city": "Nashik",
      "concessionaire_name": "MBCPNL",
      "geo_codes_raw": "20.272237,73.451320",
      "latitude": "20.272237",
      "longitude": "73.451320",
      "pdf_page": 70
    },
    {
      "netc_plaza_code": "536154",
      "plaza_name": "Rajura CheckPost",
      "concessionaire_type": "BOT",
      "plaza_type": "TOLL",
      "plaza_sub_type": "STATE",
      "state_name": "Maharashtra",
      "city": "Chandrapur",
      "concessionaire_name": "MBCPNL",
      "geo_codes_raw": "19.36553,79.195747",
      "latitude": "19.36553",
      "longitude": "79.195747",
      "pdf_page": 70
    },
    {
      "netc_plaza_code": "536155",
      "plaza_name": "Biloli CheckPost",
      "concessionaire_type": "BOT",
      "plaza_type": "TOLL",
      "plaza_sub_type": "STATE",
      "state_name": "Maharashtra",
      "city": "Nanded",
      "concessionaire_name": "MBCPNL",
      "geo_codes_raw": "18.434802,77.454546",
      "latitude": "18.434802",
      "longitude": "77.454546",
      "pdf_page": 70
    },
    {
      "netc_plaza_code": "536156",
      "plaza_name": "Kharpi CheckPost",
      "concessionaire_type": "BOT",
      "plaza_type": "TOLL",
      "plaza_sub_type": "STATE",
      "state_name": "Maharashtra",
      "city": "Amravati",
      "concessionaire_name": "MBCPNL",
      "geo_codes_raw": "21.37415,77.63121",
      "latitude": "21.37415",
      "longitude": "77.63121",
      "pdf_page": 70
    },
    {
      "netc_plaza_code": "536157",
      "plaza_name": "AkkalkuvaCheck Post",
      "concessionaire_type": "Bot",
      "plaza_type": "TOLL",
      "plaza_sub_type": "STATE",
      "state_name": "Maharashtra",
      "city": "Nandurbar",
      "concessionaire_name": "MBCPNL",
      "geo_codes_raw": "21.32525,73.535235",
      "latitude": "21.32525",
      "longitude": "73.535235",
      "pdf_page": 70
    },
    {
      "netc_plaza_code": "536158",
      "plaza_name": "Shinoli CheckPost",
      "concessionaire_type": "Bot",
      "plaza_type": "TOLL",
      "plaza_sub_type": "STATE",
      "state_name": "Maharashtra",
      "city": "Kolhapur",
      "concessionaire_name": "MBCPNL",
      "geo_codes_raw": "15.524991,74.21141",
      "latitude": "15.524991",
      "longitude": "74.21141",
      "pdf_page": 70
    },
    {
      "netc_plaza_code": "536159",
      "plaza_name": "Warud CheckPost",
      "concessionaire_type": "Bot",
      "plaza_type": "TOLL",
      "plaza_sub_type": "STATE",
      "state_name": "Maharashtra",
      "city": "Amravati",
      "concessionaire_name": "MBCPNL",
      "geo_codes_raw": "21.3256,78.1628",
      "latitude": "21.3256",
      "longitude": "78.1628",
      "pdf_page": 71
    },
    {
      "netc_plaza_code": "536160",
      "plaza_name": "Kelwad CheckPost",
      "concessionaire_type": "Bot",
      "plaza_type": "TOLL",
      "plaza_sub_type": "STATE",
      "state_name": "Maharashtra",
      "city": "Nagpur",
      "concessionaire_name": "MBCPNL",
      "geo_codes_raw": "21.2817,78.5221",
      "latitude": "21.2817",
      "longitude": "78.5221",
      "pdf_page": 71
    },
    {
      "netc_plaza_code": "536161",
      "plaza_name": "Chorwad CheckPost",
      "concessionaire_type": "BOT",
      "plaza_type": "TOLL",
      "plaza_sub_type": "STATE",
      "state_name": "Maharashtra",
      "city": "Jalgaon",
      "concessionaire_name": "MBCPNL",
      "geo_codes_raw": "21.1621,76.624",
      "latitude": "21.1621",
      "longitude": "76.624",
      "pdf_page": 71
    },
    {
      "netc_plaza_code": "536162",
      "plaza_name": "Degloor CheckPost",
      "concessionaire_type": "Bot",
      "plaza_type": "TOLL",
      "plaza_sub_type": "STATE",
      "state_name": "Maharashtra",
      "city": "Nanded",
      "concessionaire_name": "MBCPNL",
      "geo_codes_raw": "18.3222,77.3523",
      "latitude": "18.3222",
      "longitude": "77.3523",
      "pdf_page": 71
    },
    {
      "netc_plaza_code": "536165",
      "plaza_name": "MaddurCheckpost",
      "concessionaire_type": "BOT",
      "plaza_type": "TOLL",
      "plaza_sub_type": "STATE",
      "state_name": "Karnataka",
      "city": "Gundlupet",
      "concessionaire_name": "Bandipurtiger reserve",
      "geo_codes_raw": "11.76904,76.54773",
      "latitude": "11.76904",
      "longitude": "76.54773",
      "pdf_page": 71
    },
    {
      "netc_plaza_code": "536166",
      "plaza_name": "G S BettaCheckpost",
      "concessionaire_type": "BOT",
      "plaza_type": "TOLL",
      "plaza_sub_type": "STATE",
      "state_name": "Karnataka",
      "city": "Gundlupet",
      "concessionaire_name": "Bandipurtiger reserve",
      "geo_codes_raw": "11.720622,76.580423",
      "latitude": "11.720622",
      "longitude": "76.580423",
      "pdf_page": 71
    },
    {
      "netc_plaza_code": "536167",
      "plaza_name": "Kekkanahallacheckpost",
      "concessionaire_type": "BOT",
      "plaza_type": "TOLL",
      "plaza_sub_type": "STATE",
      "state_name": "Karnataka",
      "city": "Gundlupet",
      "concessionaire_name": "Bandipurtiger reserve",
      "geo_codes_raw": "11.618946,76.590337",
      "latitude": "11.618946",
      "longitude": "76.590337",
      "pdf_page": 71
    },
    {
      "netc_plaza_code": "536168",
      "plaza_name": "Palli",
      "concessionaire_type": "PF",
      "plaza_type": "TOLL",
      "plaza_sub_type": "STATE",
      "state_name": "Rajasthan",
      "city": "Jodhpur",
      "concessionaire_name": "JaiBholebabaTollways(P) LTD",
      "geo_codes_raw": "26.930613,72.670506",
      "latitude": "26.930613",
      "longitude": "72.670506",
      "pdf_page": 71
    },
    {
      "netc_plaza_code": "536169",
      "plaza_name": "Rampura Toll Plaza",
      "concessionaire_type": "PF",
      "plaza_type": "TOLL",
      "plaza_sub_type": "STATE",
      "state_name": "Rajasthan",
      "city": "Suratgarh",
      "concessionaire_name": "DSR InfraJaipur",
      "geo_codes_raw": "29.349492,73.921910",
      "latitude": "29.349492",
      "longitude": "73.921910",
      "pdf_page": 71
    },
    {
      "netc_plaza_code": "536170",
      "plaza_name": "Dabli Toll Plaza",
      "concessionaire_type": "PF",
      "plaza_type": "TOLL",
      "plaza_sub_type": "STATE",
      "state_name": "Rajasthan",
      "city": "Hanumangarh",
      "concessionaire_name": "DSR InfraJaipur",
      "geo_codes_raw": "29.82251073.87516621.715258",
      "latitude": "29.822510",
      "longitude": "73.875166",
      "pdf_page": 71
    },
    {
      "netc_plaza_code": "536171",
      "plaza_name": "Kasherol Toll Plaza",
      "concessionaire_type": "Conc.",
      "plaza_type": "TOLL",
      "plaza_sub_type": "STATE",
      "state_name": "Gujarat",
      "city": "Kasherol",
      "concessionaire_name": "M/SInderdeep",
      "geo_codes_raw": "21.715258626843195,72.78106183462076",
      "latitude": "21.715258",
      "longitude": "72.781061",
      "pdf_page": 71
    },
    {
      "netc_plaza_code": "536172",
      "plaza_name": "Kadwala Plaza",
      "concessionaire_type": "Conc.",
      "plaza_type": "TOLL",
      "plaza_sub_type": "STATE",
      "state_name": "MadhyaPradesh",
      "city": "BadodAgarMalwa",
      "concessionaire_name": "RaimaVenturesPrivateLimited",
      "geo_codes_raw": "23.7580,75.8295",
      "latitude": "23.7580",
      "longitude": "75.8295",
      "pdf_page": 71
    },
    {
      "netc_plaza_code": "536173",
      "plaza_name": "Tal PhantaPlaza",
      "concessionaire_type": "Conc.",
      "plaza_type": "TOLL",
      "plaza_sub_type": "STATE",
      "state_name": "MadhyaPradesh",
      "city": "Tal",
      "concessionaire_name": "RaimaVenturesPrivateLimited",
      "geo_codes_raw": "23.7314,75.4116",
      "latitude": "23.7314",
      "longitude": "75.4116",
      "pdf_page": 71
    },
    {
      "netc_plaza_code": "536175",
      "plaza_name": "Dehra Shahpur Toll Plaza",
      "concessionaire_type": "Conc.",
      "plaza_type": "TOLL",
      "plaza_sub_type": "STATE",
      "state_name": "Rajasthan",
      "city": "Alwar",
      "concessionaire_name": "RSRDC",
      "geo_codes_raw": "27.6695,76.5847",
      "latitude": "27.6695",
      "longitude": "76.5847",
      "pdf_page": 71
    },
    {
      "netc_plaza_code": "536176",
      "plaza_name": "Nainasar Toll Plaza",
      "concessionaire_type": "Conc.",
      "plaza_type": "TOLL",
      "plaza_sub_type": "STATE",
      "state_name": "Rajasthan",
      "city": "Sardarshahar",
      "concessionaire_name": "RSRDC",
      "geo_codes_raw": "28.4747,74.6391",
      "latitude": "28.4747",
      "longitude": "74.6391",
      "pdf_page": 72
    },
    {
      "netc_plaza_code": "536177",
      "plaza_name": "Jakhrana Toll Plaza",
      "concessionaire_type": "Conc.",
      "plaza_type": "TOLL",
      "plaza_sub_type": "STATE",
      "state_name": "Rajasthan",
      "city": "Alwar",
      "concessionaire_name": "RSRDC",
      "geo_codes_raw": "27.9730,76.2011",
      "latitude": "27.9730",
      "longitude": "76.2011",
      "pdf_page": 72
    },
    {
      "netc_plaza_code": "536178",
      "plaza_name": "Aadsar Toll Plaza",
      "concessionaire_type": "Conc.",
      "plaza_type": "TOLL",
      "plaza_sub_type": "STATE",
      "state_name": "Rajasthan",
      "city": "Bikaner",
      "concessionaire_name": "RSRDC",
      "geo_codes_raw": "28.2464,74.1770",
      "latitude": "28.2464",
      "longitude": "74.1770",
      "pdf_page": 72
    },
    {
      "netc_plaza_code": "536180",
      "plaza_name": "RTP12",
      "concessionaire_type": "BOT",
      "plaza_type": "TOLL",
      "plaza_sub_type": "STATE",
      "state_name": "UttarPradesh",
      "city": "GautamBuddhaNagar",
      "concessionaire_name": "JaypeeInfratechLimited",
      "geo_codes_raw": "28.346516,77.543489",
      "latitude": "28.346516",
      "longitude": "77.543489",
      "pdf_page": 72
    },
    {
      "netc_plaza_code": "536181",
      "plaza_name": "RTP15",
      "concessionaire_type": "BOT",
      "plaza_type": "TOLL",
      "plaza_sub_type": "STATE",
      "state_name": "UttarPradesh",
      "city": "GautamBuddhaNagar",
      "concessionaire_name": "JaypeeInfratechLimited",
      "geo_codes_raw": "28.319421,77.552713",
      "latitude": "28.319421",
      "longitude": "77.552713",
      "pdf_page": 72
    },
    {
      "netc_plaza_code": "536182",
      "plaza_name": "RTP16",
      "concessionaire_type": "BOT",
      "plaza_type": "TOLL",
      "plaza_sub_type": "STATE",
      "state_name": "UttarPradesh",
      "city": "GautamBuddhaNagar",
      "concessionaire_name": "JaypeeInfratechLimited",
      "geo_codes_raw": "28.321175,77.551394",
      "latitude": "28.321175",
      "longitude": "77.551394",
      "pdf_page": 72
    },
    {
      "netc_plaza_code": "536185",
      "plaza_name": "Lordiya(Phalodi)",
      "concessionaire_type": "PF",
      "plaza_type": "TOLL",
      "plaza_sub_type": "STATE",
      "state_name": "Rajasthan",
      "city": "Jodhpur",
      "concessionaire_name": "JaiBholebabaTollways(P) LTD",
      "geo_codes_raw": "27.058341,72.414254",
      "latitude": "27.058341",
      "longitude": "72.414254",
      "pdf_page": 72
    },
    {
      "netc_plaza_code": "536186",
      "plaza_name": "Kiramsariya(Osian)",
      "concessionaire_type": "PF",
      "plaza_type": "TOLL",
      "plaza_sub_type": "STATE",
      "state_name": "Rajasthan",
      "city": "Jodhpur",
      "concessionaire_name": "JaiBholebabaTollways(P) LTD",
      "geo_codes_raw": "27.0583,72.4145",
      "latitude": "27.0583",
      "longitude": "72.4145",
      "pdf_page": 72
    },
    {
      "netc_plaza_code": "536187",
      "plaza_name": "Dabok",
      "concessionaire_type": "PF",
      "plaza_type": "TOLL",
      "plaza_sub_type": "STATE",
      "state_name": "Rajasthan",
      "city": "Udaipur",
      "concessionaire_name": "RajendraSinghShekhawatJaipur",
      "geo_codes_raw": "24.64961,73.871801",
      "latitude": "24.64961",
      "longitude": "73.871801",
      "pdf_page": 72
    },
    {
      "netc_plaza_code": "536188",
      "plaza_name": "Rampura (Jodhpur )",
      "concessionaire_type": "PF",
      "plaza_type": "TOLL",
      "plaza_sub_type": "STATE",
      "state_name": "Rajasthan",
      "city": "Jodhpur",
      "concessionaire_name": "JaiBholebabaTollways(P) LTD",
      "geo_codes_raw": "26.4731,73.0140",
      "latitude": "26.4731",
      "longitude": "73.0140",
      "pdf_page": 72
    },
    {
      "netc_plaza_code": "536189",
      "plaza_name": "Singhpura",
      "concessionaire_type": "PF",
      "plaza_type": "TOLL",
      "plaza_sub_type": "STATE",
      "state_name": "Rajasthan",
      "city": "Chittorgarh",
      "concessionaire_name": "RajendraSinghShekhawatJaipur",
      "geo_codes_raw": "24.923471,74.43.5884",
      "latitude": "24.923471",
      "longitude": "74.435884",
      "pdf_page": 72
    },
    {
      "netc_plaza_code": "536190",
      "plaza_name": "Gopalpura",
      "concessionaire_type": "PF",
      "plaza_type": "TOLL",
      "plaza_sub_type": "STATE",
      "state_name": "Rajasthan",
      "city": "Bhilwada",
      "concessionaire_name": "M/sMahipalsingh Jaipur",
      "geo_codes_raw": "25.2738,75.0933",
      "latitude": "25.2738",
      "longitude": "75.0933",
      "pdf_page": 72
    },
    {
      "netc_plaza_code": "536191",
      "plaza_name": "Kuradiya",
      "concessionaire_type": "PF",
      "plaza_type": "TOLL",
      "plaza_sub_type": "STATE",
      "state_name": "Rajasthan",
      "city": "Bhilwada",
      "concessionaire_name": "M/sMahipalsingh Jaipur",
      "geo_codes_raw": "25.694816,75.336228",
      "latitude": "25.694816",
      "longitude": "75.336228",
      "pdf_page": 72
    },
    {
      "netc_plaza_code": "536195",
      "plaza_name": "Kaladera Toll Plaza",
      "concessionaire_type": "PF",
      "plaza_type": "TOLL",
      "plaza_sub_type": "STATE",
      "state_name": "Rajasthan",
      "city": "Chomu",
      "concessionaire_name": "M/sDevdashrath Associates",
      "geo_codes_raw": "27.236583563264666,76.007136",
      "latitude": "27.236583",
      "longitude": "76.007136",
      "pdf_page": 73
    },
    {
      "netc_plaza_code": "536204",
      "plaza_name": "Sujalpur Akodia Toll Plaza",
      "concessionaire_type": "Conc",
      "plaza_type": "TOLL",
      "plaza_sub_type": "STATE",
      "state_name": "MadhyaPradesh",
      "city": "Akodia",
      "concessionaire_name": "Vinay DixitRoadways",
      "geo_codes_raw": "23.389354,76.627212",
      "latitude": "23.389354",
      "longitude": "76.627212",
      "pdf_page": 73
    },
    {
      "netc_plaza_code": "536209",
      "plaza_name": "Triveni Toll Plaza",
      "concessionaire_type": "PF",
      "plaza_type": "TOLL",
      "plaza_sub_type": "STATE",
      "state_name": "Rajasthan",
      "city": "Jaipur",
      "concessionaire_name": "Chinar RoadOperations& SS",
      "geo_codes_raw": "27.403075,75.876376",
      "latitude": "27.403075",
      "longitude": "75.876376",
      "pdf_page": 73
    },
    {
      "netc_plaza_code": "536210",
      "plaza_name": "Dhawali Toll Plaza",
      "concessionaire_type": "PF",
      "plaza_type": "TOLL",
      "plaza_sub_type": "STATE",
      "state_name": "Rajasthan",
      "city": "Jaipur",
      "concessionaire_name": "Chinar RoadOperations& SS",
      "geo_codes_raw": "27.221361,75.829917",
      "latitude": "27.221361",
      "longitude": "75.829917",
      "pdf_page": 73
    },
    {
      "netc_plaza_code": "536211",
      "plaza_name": "Mangalbad(Morwan) Toll Plaza",
      "concessionaire_type": "PF",
      "plaza_type": "TOLL",
      "plaza_sub_type": "STATE",
      "state_name": "Rajasthan",
      "city": "chittorgarh",
      "concessionaire_name": "Top LineInfraProjects(P)Ltd",
      "geo_codes_raw": "24.605834,74.343513",
      "latitude": "24.605834",
      "longitude": "74.343513",
      "pdf_page": 73
    },
    {
      "netc_plaza_code": "536212",
      "plaza_name": "Nimbahrda(Dhinwa) Toll Plaza",
      "concessionaire_type": "PF",
      "plaza_type": "TOLL",
      "plaza_sub_type": "STATE",
      "state_name": "Rajasthan",
      "city": "chittorgarh",
      "concessionaire_name": "Top LineInfraProjects(P)Ltd",
      "geo_codes_raw": "24.610614,74.647937",
      "latitude": "24.610614",
      "longitude": "74.647937",
      "pdf_page": 74
    },
    {
      "netc_plaza_code": "536214",
      "plaza_name": "Salumba(Isarwas)",
      "concessionaire_type": "PF",
      "plaza_type": "TOLL",
      "plaza_sub_type": "STATE",
      "state_name": "Rajasthan",
      "city": "Chittorgarh",
      "concessionaire_name": "Top LineInfraProjects(P)Ltd",
      "geo_codes_raw": "24.17204,74.047535",
      "latitude": "24.17204",
      "longitude": "74.047535",
      "pdf_page": 74
    },
    {
      "netc_plaza_code": "536215",
      "plaza_name": "Kir ki Choki(Bargaon)",
      "concessionaire_type": "PF",
      "plaza_type": "TOLL",
      "plaza_sub_type": "STATE",
      "state_name": "Rajasthan",
      "city": "Udaipur",
      "concessionaire_name": "Top LineInfraProjects(P)Ltd",
      "geo_codes_raw": "24.579950,74.197945",
      "latitude": "24.579950",
      "longitude": "74.197945",
      "pdf_page": 74
    },
    {
      "netc_plaza_code": "536218",
      "plaza_name": "Pipliy Toll Plaza",
      "concessionaire_type": "PF",
      "plaza_type": "TOLL",
      "plaza_sub_type": "STATE",
      "state_name": "Rajasthan",
      "city": "AnwaliKalan",
      "concessionaire_name": "M/sRajendraSinghShekhawat",
      "geo_codes_raw": "24.43518,75.904012",
      "latitude": "24.43518",
      "longitude": "75.904012",
      "pdf_page": 74
    },
    {
      "netc_plaza_code": "536219",
      "plaza_name": "Bhawanimandi Toll Plaza",
      "concessionaire_type": "PF",
      "plaza_type": "TOLL",
      "plaza_sub_type": "STATE",
      "state_name": "Rajasthan",
      "city": "Bhawanimandi",
      "concessionaire_name": "M/sRajendraSinghShekhawat",
      "geo_codes_raw": "24.326755065666323,75.8328686399787",
      "latitude": "24.326755",
      "longitude": "75.832868",
      "pdf_page": 74
    },
    {
      "netc_plaza_code": "536220",
      "plaza_name": "Dug Toll Plaza",
      "concessionaire_type": "PF",
      "plaza_type": "TOLL",
      "plaza_sub_type": "STATE",
      "state_name": "Rajasthan",
      "city": "dug",
      "concessionaire_name": "M/sRajendraSinghShekhawat",
      "geo_codes_raw": "23.957777777730513,75.86029848718177",
      "latitude": "23.957777",
      "longitude": "75.860298",
      "pdf_page": 74
    },
    {
      "netc_plaza_code": "536221",
      "plaza_name": "Suket Toll Plaza",
      "concessionaire_type": "PF",
      "plaza_type": "TOLL",
      "plaza_sub_type": "STATE",
      "state_name": "Rajasthan",
      "city": "Julmi",
      "concessionaire_name": "M/sRajendraSinghShekhawat",
      "geo_codes_raw": "24.570243,75.9917",
      "latitude": "24.570243",
      "longitude": "75.9917",
      "pdf_page": 74
    },
    {
      "netc_plaza_code": "536222",
      "plaza_name": "Kawai Toll Plaza",
      "concessionaire_type": "PF",
      "plaza_type": "TOLL",
      "plaza_sub_type": "STATE",
      "state_name": "Rajasthan",
      "city": "Kawai",
      "concessionaire_name": "RishirajSingh",
      "geo_codes_raw": "24.766053137573014,76.674377",
      "latitude": "24.766053",
      "longitude": "76.674377",
      "pdf_page": 74
    },
    {
      "netc_plaza_code": "536223",
      "plaza_name": "Sangod(Borada)",
      "concessionaire_type": "PF",
      "plaza_type": "TOLL",
      "plaza_sub_type": "STATE",
      "state_name": "Rajasthan",
      "city": "Sangod",
      "concessionaire_name": "RishirajSingh",
      "geo_codes_raw": "4582670924.922047,76.341751",
      "latitude": "24.922047",
      "longitude": "76.341751",
      "pdf_page": 74
    },
    {
      "netc_plaza_code": "536224",
      "plaza_name": "Galana Toll Plaza",
      "concessionaire_type": "PF",
      "plaza_type": "TOLL",
      "plaza_sub_type": "STATE",
      "state_name": "Rajasthan",
      "city": "kethun",
      "concessionaire_name": "RishirajSingh",
      "geo_codes_raw": "25.079677,76.018948",
      "latitude": "25.079677",
      "longitude": "76.018948",
      "pdf_page": 75
    },
    {
      "netc_plaza_code": "536225",
      "plaza_name": "EKWASA Toll Plaza",
      "concessionaire_type": "PF",
      "plaza_type": "TOLL",
      "plaza_sub_type": "STATE",
      "state_name": "Rajasthan",
      "city": "Akwasa",
      "concessionaire_name": "M/s Nirmaladevi Alwar",
      "geo_codes_raw": "24.48322104958452,76.25027715224394",
      "latitude": "24.483221",
      "longitude": "76.250277",
      "pdf_page": 75
    },
    {
      "netc_plaza_code": "536226",
      "plaza_name": "Bakani Toll Plaza",
      "concessionaire_type": "PF",
      "plaza_type": "TOLL",
      "plaza_sub_type": "STATE",
      "state_name": "Rajasthan",
      "city": "Bakani",
      "concessionaire_name": "M/s Nirmaladevi Alwar",
      "geo_codes_raw": "24.244104,76.251484",
      "latitude": "24.244104",
      "longitude": "76.251484",
      "pdf_page": 75
    },
    {
      "netc_plaza_code": "536227",
      "plaza_name": "Dakan kotra Toll Plaza",
      "concessionaire_type": "PF",
      "plaza_type": "TOLL",
      "plaza_sub_type": "STATE",
      "state_name": "Rajasthan",
      "city": "kotra",
      "concessionaire_name": "GalaxyMining&Royalties(P)Ltd",
      "geo_codes_raw": "24.48890508739224,73.74398203139467",
      "latitude": "24.488905",
      "longitude": "73.743982",
      "pdf_page": 75
    },
    {
      "netc_plaza_code": "536228",
      "plaza_name": "Khairad Toll Plaza",
      "concessionaire_type": "PF",
      "plaza_type": "TOLL",
      "plaza_sub_type": "STATE",
      "state_name": "Rajasthan",
      "city": "kerad",
      "concessionaire_name": "GalaxyMining&Royalties(P)Ltd",
      "geo_codes_raw": "24.19805380609635,73.99299159150617",
      "latitude": "24.198053",
      "longitude": "73.992991",
      "pdf_page": 75
    },
    {
      "netc_plaza_code": "536229",
      "plaza_name": "Debari(sakroda) Toll Plaza",
      "concessionaire_type": "PF",
      "plaza_type": "TOLL",
      "plaza_sub_type": "STATE",
      "state_name": "Rajasthan",
      "city": "sakroda",
      "concessionaire_name": "Top LineInfraProjects(P)Ltd",
      "geo_codes_raw": "24.564205134346167,73.86712409907246",
      "latitude": "24.564205",
      "longitude": "73.867124",
      "pdf_page": 75
    },
    {
      "netc_plaza_code": "536230",
      "plaza_name": "Bambora(Gudli) Toll Plaza",
      "concessionaire_type": "PF",
      "plaza_type": "TOLL",
      "plaza_sub_type": "STATE",
      "state_name": "Rajasthan",
      "city": "Gudli",
      "concessionaire_name": "Top LineInfraProjects(P)Ltd",
      "geo_codes_raw": "24.40243101167857,74.01105883769489",
      "latitude": "24.402431",
      "longitude": "74.011058",
      "pdf_page": 75
    },
    {
      "netc_plaza_code": "536232",
      "plaza_name": "Samdolar Toll Plaza",
      "concessionaire_type": "Conc.",
      "plaza_type": "TOLL",
      "plaza_sub_type": "STATE",
      "state_name": "Rajasthan",
      "city": "Naguar",
      "concessionaire_name": "RSRDC",
      "geo_codes_raw": "26.499775807955015,74.0757078987391",
      "latitude": "26.499775",
      "longitude": "74.075707",
      "pdf_page": 75
    },
    {
      "netc_plaza_code": "536233",
      "plaza_name": "Gulganv Toll Plaza",
      "concessionaire_type": "Conc.",
      "plaza_type": "TOLL",
      "plaza_sub_type": "STATE",
      "state_name": "Rajasthan",
      "city": "Kekri",
      "concessionaire_name": "RSRDC",
      "geo_codes_raw": "25.81878688272016,75.19777148578214",
      "latitude": "25.818786",
      "longitude": "75.197771",
      "pdf_page": 75
    },
    {
      "netc_plaza_code": "536234",
      "plaza_name": "Sarwar Toll Plaza",
      "concessionaire_type": "Conc.",
      "plaza_type": "TOLL",
      "plaza_sub_type": "STATE",
      "state_name": "Rajasthan",
      "city": "Sarwar",
      "concessionaire_name": "RSRDC",
      "geo_codes_raw": "26.092349260177166,74.99103559217495",
      "latitude": "26.092349",
      "longitude": "74.991035",
      "pdf_page": 75
    },
    {
      "netc_plaza_code": "536235",
      "plaza_name": "AmarpuraRSRDC Toll Plaza",
      "concessionaire_type": "Conc.",
      "plaza_type": "TOLL",
      "plaza_sub_type": "STATE",
      "state_name": "Rajasthan",
      "city": "Naguar",
      "concessionaire_name": "RSRDC",
      "geo_codes_raw": "26.344975881322714,74.12674720079056",
      "latitude": "26.344975",
      "longitude": "74.126747",
      "pdf_page": 75
    },
    {
      "netc_plaza_code": "536239",
      "plaza_name": "Rojhana Toll Plaza",
      "concessionaire_type": "PF",
      "plaza_type": "TOLL",
      "plaza_sub_type": "STATE",
      "state_name": "Rajasthan",
      "city": "Dug",
      "concessionaire_name": "HAEnterprises",
      "geo_codes_raw": "23.95196264831103,75.68827127081717",
      "latitude": "23.951962",
      "longitude": "75.688271",
      "pdf_page": 76
    },
    {
      "netc_plaza_code": "536240",
      "plaza_name": "Chechat(Gumanpura)Toll Plaza",
      "concessionaire_type": "PF",
      "plaza_type": "TOLL",
      "plaza_sub_type": "STATE",
      "state_name": "Rajasthan",
      "city": "Kota",
      "concessionaire_name": "Chinar RoadOperations& SS",
      "geo_codes_raw": "24.741300761614266,75.93758272554194",
      "latitude": "24.741300",
      "longitude": "75.937582",
      "pdf_page": 76
    },
    {
      "netc_plaza_code": "536241",
      "plaza_name": "Undwa Toll Plaza",
      "concessionaire_type": "PF",
      "plaza_type": "TOLL",
      "plaza_sub_type": "STATE",
      "state_name": "Rajasthan",
      "city": "Kota",
      "concessionaire_name": "Chinar RoadOperations& SS",
      "geo_codes_raw": "24.616053,75.909212",
      "latitude": "24.616053",
      "longitude": "75.909212",
      "pdf_page": 76
    },
    {
      "netc_plaza_code": "536242",
      "plaza_name": "Pipariya Toll\\t ConcPlaza",
      "concessionaire_type": null,
      "plaza_type": "TOLL",
      "plaza_sub_type": "STATE",
      "state_name": "MadhyaPradesh",
      "city": "Gram Tilari",
      "concessionaire_name": "M/s ShriGirrajInfrastructure",
      "geo_codes_raw": "22.769163,78.355685",
      "latitude": "22.769163",
      "longitude": "78.355685",
      "pdf_page": 76
    },
    {
      "netc_plaza_code": "536243",
      "plaza_name": "Kareli Toll Plaza",
      "concessionaire_type": "Conc",
      "plaza_type": "TOLL",
      "plaza_sub_type": "STATE",
      "state_name": "MadhyaPradesh",
      "city": "Kareli Basti",
      "concessionaire_name": "M/s ShriGirrajInfrastructure",
      "geo_codes_raw": "22.911193,79.054614",
      "latitude": "22.911193",
      "longitude": "79.054614",
      "pdf_page": 76
    },
    {
      "netc_plaza_code": "536247",
      "plaza_name": "Barrod Toll Plaza",
      "concessionaire_type": "Conc.",
      "plaza_type": "TOLL",
      "plaza_sub_type": "STATE",
      "state_name": "Rajasthan",
      "city": "Alwar",
      "concessionaire_name": "RSRDC",
      "geo_codes_raw": "227.8926,76.3446",
      "latitude": "27.8926",
      "longitude": "76.3446",
      "pdf_page": 76
    },
    {
      "netc_plaza_code": "536248",
      "plaza_name": "Jadankhalsa",
      "concessionaire_type": "PF",
      "plaza_type": "TOLL",
      "plaza_sub_type": "STATE",
      "state_name": "Rajasthan",
      "city": "PALI",
      "concessionaire_name": "RSHA",
      "geo_codes_raw": "25.854958,73.479906",
      "latitude": "25.854958",
      "longitude": "73.479906",
      "pdf_page": 76
    },
    {
      "netc_plaza_code": "536249",
      "plaza_name": "Khejrali Toll Plaza",
      "concessionaire_type": "PF",
      "plaza_type": "TOLL",
      "plaza_sub_type": "STATE",
      "state_name": "Rajasthan",
      "city": "Jodhpur",
      "concessionaire_name": "RSHA",
      "geo_codes_raw": "26.1583530,731669180",
      "latitude": "26.158353",
      "longitude": "73.166918",
      "pdf_page": 77
    },
    {
      "netc_plaza_code": "536250",
      "plaza_name": "Auwa Toll Plaza",
      "concessionaire_type": "PF",
      "plaza_type": "TOLL",
      "plaza_sub_type": "STATE",
      "state_name": "Rajasthan",
      "city": "MarvarJunction",
      "concessionaire_name": "RSHA",
      "geo_codes_raw": "25.614401,73.628414",
      "latitude": "25.614401",
      "longitude": "73.628414",
      "pdf_page": 77
    },
    {
      "netc_plaza_code": "536251",
      "plaza_name": "Kudi Toll Plaza",
      "concessionaire_type": "PF",
      "plaza_type": "TOLL",
      "plaza_sub_type": "STATE",
      "state_name": "Rajasthan",
      "city": "Bhopalgargh",
      "concessionaire_name": "RSHA",
      "geo_codes_raw": "26.573902,73.452095",
      "latitude": "26.573902",
      "longitude": "73.452095",
      "pdf_page": 77
    },
    {
      "netc_plaza_code": "536252",
      "plaza_name": "Gwaloo Toll Plaza",
      "concessionaire_type": "PF",
      "plaza_type": "TOLL",
      "plaza_sub_type": "STATE",
      "state_name": "Rajasthan",
      "city": "Kuchera",
      "concessionaire_name": "RSHA",
      "geo_codes_raw": "26.902365,73.768778",
      "latitude": "26.902365",
      "longitude": "73.768778",
      "pdf_page": 77
    },
    {
      "netc_plaza_code": "536253",
      "plaza_name": "Jajiwal Gehlota Toll Plaza",
      "concessionaire_type": "PF",
      "plaza_type": "TOLL",
      "plaza_sub_type": "STATE",
      "state_name": "Rajasthan",
      "city": "Jodhpur",
      "concessionaire_name": "RSHA",
      "geo_codes_raw": "26.400036,73.166072",
      "latitude": "26.400036",
      "longitude": "73.166072",
      "pdf_page": 77
    },
    {
      "netc_plaza_code": "536254",
      "plaza_name": "Indrapura Toll Plaza",
      "concessionaire_type": "PF",
      "plaza_type": "TOLL",
      "plaza_sub_type": "STATE",
      "state_name": "Rajasthan",
      "city": "Borawad",
      "concessionaire_name": "Om Shivconstructioncompany",
      "geo_codes_raw": "27.10697801531664,74.39204938997288",
      "latitude": "27.106978",
      "longitude": "74.392049",
      "pdf_page": 77
    },
    {
      "netc_plaza_code": "536255",
      "plaza_name": "Kalawa Toll Plaza",
      "concessionaire_type": "PF",
      "plaza_type": "TOLL",
      "plaza_sub_type": "STATE",
      "state_name": "Rajasthan",
      "city": "Borawad",
      "concessionaire_name": "Om Shivconstructioncompany",
      "geo_codes_raw": "27.04019586965612,74.63067456512879",
      "latitude": "27.040195",
      "longitude": "74.630674",
      "pdf_page": 77
    },
    {
      "netc_plaza_code": "536256",
      "plaza_name": "Fatehnagar(Sunwar) Toll Plaza",
      "concessionaire_type": "PF",
      "plaza_type": "TOLL",
      "plaza_sub_type": "STATE",
      "state_name": "Rajasthan",
      "city": "Fatehnagar",
      "concessionaire_name": "Shekhawatiinfrastructure",
      "geo_codes_raw": "24.848181881716105,74.08550673977528",
      "latitude": "24.848181",
      "longitude": "74.085506",
      "pdf_page": 77
    },
    {
      "netc_plaza_code": "536257",
      "plaza_name": "Dariba(Rajpura) Toll Plaza",
      "concessionaire_type": "PF",
      "plaza_type": "TOLL",
      "plaza_sub_type": "STATE",
      "state_name": "Rajasthan",
      "city": "Fatehnagar",
      "concessionaire_name": "Shekhawatiinfrastructure",
      "geo_codes_raw": "24.971666489289507,74.11349073548703",
      "latitude": "24.971666",
      "longitude": "74.113490",
      "pdf_page": 77
    },
    {
      "netc_plaza_code": "536258",
      "plaza_name": "Varaval Toll Plaza",
      "concessionaire_type": "PF",
      "plaza_type": "TOLL",
      "plaza_sub_type": "STATE",
      "state_name": "Rajasthan",
      "city": "Pundwara",
      "concessionaire_name": "M/s H.A.Enterprises",
      "geo_codes_raw": "25.014239525146614,73.15692302350817",
      "latitude": "25.014239",
      "longitude": "73.156923",
      "pdf_page": 77
    },
    {
      "netc_plaza_code": "536259",
      "plaza_name": "Amli Toll Plaza",
      "concessionaire_type": "PF",
      "plaza_type": "TOLL",
      "plaza_sub_type": "STATE",
      "state_name": "Rajasthan",
      "city": "Bali",
      "concessionaire_name": "M/s H.A.Enterprises",
      "geo_codes_raw": "24.84215637192631,73.12596919598431",
      "latitude": "24.842156",
      "longitude": "73.125969",
      "pdf_page": 77
    },
    {
      "netc_plaza_code": "536260",
      "plaza_name": "Jhirana Toll Plaza",
      "concessionaire_type": "PF",
      "plaza_type": "TOLL",
      "plaza_sub_type": "STATE",
      "state_name": "Rajasthan",
      "city": "Diggi",
      "concessionaire_name": "Vikas Hooda",
      "geo_codes_raw": "26.289373132541456,75.63072853528111",
      "latitude": "26.289373",
      "longitude": "75.630728",
      "pdf_page": 77
    },
    {
      "netc_plaza_code": "536261",
      "plaza_name": "Sohela Toll Plaza",
      "concessionaire_type": "PF",
      "plaza_type": "TOLL",
      "plaza_sub_type": "STATE",
      "state_name": "Rajasthan",
      "city": "Tonk",
      "concessionaire_name": "Vikas Hooda",
      "geo_codes_raw": "26.24465676600831,75.80508770567103",
      "latitude": "26.244656",
      "longitude": "75.805087",
      "pdf_page": 78
    },
    {
      "netc_plaza_code": "536262",
      "plaza_name": "Meoda kalan Toll Plaza",
      "concessionaire_type": "PF",
      "plaza_type": "TOLL",
      "plaza_sub_type": "STATE",
      "state_name": "Rajasthan",
      "city": "Tonk",
      "concessionaire_name": "M/s CoralAssociates",
      "geo_codes_raw": "25.996468597872465,75.20623878500516",
      "latitude": "25.996468",
      "longitude": "75.206238",
      "pdf_page": 78
    },
    {
      "netc_plaza_code": "536263",
      "plaza_name": "Daulat pura Toll Plaza",
      "concessionaire_type": "PF",
      "plaza_type": "TOLL",
      "plaza_sub_type": "STATE",
      "state_name": "Rajasthan",
      "city": "Bundi",
      "concessionaire_name": "M/s Nirmaladevi Alwar",
      "geo_codes_raw": "25.402898,75.56853",
      "latitude": "25.402898",
      "longitude": "75.56853",
      "pdf_page": 78
    },
    {
      "netc_plaza_code": "536264",
      "plaza_name": "Ganesh pura Toll Plaza",
      "concessionaire_type": "PF",
      "plaza_type": "TOLL",
      "plaza_sub_type": "STATE",
      "state_name": "Rajasthan",
      "city": "Bundi",
      "concessionaire_name": "M/s Nirmaladevi Alwar",
      "geo_codes_raw": "25.468538681111674,75.74367286931822",
      "latitude": "25.468538",
      "longitude": "75.743672",
      "pdf_page": 78
    },
    {
      "netc_plaza_code": "536265",
      "plaza_name": "Bassi Naaga Toll Plaza",
      "concessionaire_type": "PF",
      "plaza_type": "TOLL",
      "plaza_sub_type": "STATE",
      "state_name": "Rajasthan",
      "city": "Jobner",
      "concessionaire_name": "M/s GalaxyMining Pvt.Ltd.",
      "geo_codes_raw": "26.98361736338097,75.50605825381206",
      "latitude": "26.983617",
      "longitude": "75.506058",
      "pdf_page": 78
    },
    {
      "netc_plaza_code": "536266",
      "plaza_name": "Govindi Nagur Toll Plaza",
      "concessionaire_type": "PF",
      "plaza_type": "TOLL",
      "plaza_sub_type": "STATE",
      "state_name": "Rajasthan",
      "city": "jaipur",
      "concessionaire_name": "M/s GalaxyMining Pvt.Ltd.",
      "geo_codes_raw": "27.03653840893979,75.12039530584205",
      "latitude": "27.036538",
      "longitude": "75.120395",
      "pdf_page": 78
    },
    {
      "netc_plaza_code": "536267",
      "plaza_name": "Budsu Nagur Toll Plaza",
      "concessionaire_type": "PF",
      "plaza_type": "TOLL",
      "plaza_sub_type": "STATE",
      "state_name": "Rajasthan",
      "city": "Kuchaman",
      "concessionaire_name": "M/s GalaxyMining Pvt.Ltd.",
      "geo_codes_raw": "27.13050455869402,74.69530222610943",
      "latitude": "27.130504",
      "longitude": "74.695302",
      "pdf_page": 78
    },
    {
      "netc_plaza_code": "536268",
      "plaza_name": "UnchairaNagaur Toll Plaza",
      "concessionaire_type": "PF",
      "plaza_type": "TOLL",
      "plaza_sub_type": "STATE",
      "state_name": "Rajasthan",
      "city": "Kuchaman",
      "concessionaire_name": "M/s GalaxyMining Pvt.Ltd.",
      "geo_codes_raw": "27.138588741563733,74.20493901101045",
      "latitude": "27.138588",
      "longitude": "74.204939",
      "pdf_page": 78
    },
    {
      "netc_plaza_code": "536269",
      "plaza_name": "Mator Toll Plaza",
      "concessionaire_type": "PF",
      "plaza_type": "TOLL",
      "plaza_sub_type": "STATE",
      "state_name": "Rajasthan",
      "city": "jaipur",
      "concessionaire_name": "ShekhawatiInfrastructure",
      "geo_codes_raw": "27.775741142903524,76.60599244786746",
      "latitude": "27.775741",
      "longitude": "76.605992",
      "pdf_page": 78
    },
    {
      "netc_plaza_code": "536270",
      "plaza_name": "Sonai Manji Toll Plaza",
      "concessionaire_type": "PF",
      "plaza_type": "TOLL",
      "plaza_sub_type": "STATE",
      "state_name": "Rajasthan",
      "city": "Pali",
      "concessionaire_name": "M/s H.A.Enterprises,Chomu",
      "geo_codes_raw": "25.68255707192154,73.36422822750643",
      "latitude": "25.682557",
      "longitude": "73.364228",
      "pdf_page": 78
    },
    {
      "netc_plaza_code": "536271",
      "plaza_name": "Jhilwara Toll Plaza",
      "concessionaire_type": "PF",
      "plaza_type": "TOLL",
      "plaza_sub_type": "STATE",
      "state_name": "Rajasthan",
      "city": "Pali",
      "concessionaire_name": "M/s H.A.Enterprises,Chomu",
      "geo_codes_raw": "25.23289892548232,73.66891273138047",
      "latitude": "25.232898",
      "longitude": "73.668912",
      "pdf_page": 78
    },
    {
      "netc_plaza_code": "536272",
      "plaza_name": "Desuri Toll Plaza",
      "concessionaire_type": "PF",
      "plaza_type": "TOLL",
      "plaza_sub_type": "STATE",
      "state_name": "Rajasthan",
      "city": "Pali",
      "concessionaire_name": "M/s H.A.Enterprises,Chomu",
      "geo_codes_raw": "25.292955946618832,73.56185289533202",
      "latitude": "25.292955",
      "longitude": "73.561852",
      "pdf_page": 79
    },
    {
      "netc_plaza_code": "536273",
      "plaza_name": "Gazipur mod Toll Plaza",
      "concessionaire_type": "PF",
      "plaza_type": "TOLL",
      "plaza_sub_type": "STATE",
      "state_name": "Rajasthan",
      "city": "Dausa",
      "concessionaire_name": "M/sRajendraSinghShekhawat",
      "geo_codes_raw": "26.982670474693663,76.94309970015159",
      "latitude": "26.982670",
      "longitude": "76.943099",
      "pdf_page": 79
    },
    {
      "netc_plaza_code": "536274",
      "plaza_name": "Danpur Toll Plaza",
      "concessionaire_type": "PF",
      "plaza_type": "TOLL",
      "plaza_sub_type": "STATE",
      "state_name": "Rajasthan",
      "city": "Banswara",
      "concessionaire_name": "AnkitaEnvirocare& Securicor",
      "geo_codes_raw": "23.51309370281631,74.6919068628707",
      "latitude": "23.513093",
      "longitude": "74.691906",
      "pdf_page": 79
    },
    {
      "netc_plaza_code": "536275",
      "plaza_name": "Kundela Toll Plaza",
      "concessionaire_type": "PF",
      "plaza_type": "TOLL",
      "plaza_sub_type": "STATE",
      "state_name": "Rajasthan",
      "city": "Banswara",
      "concessionaire_name": "AnkitaEnvirocare& Securicor",
      "geo_codes_raw": "23.54043572874468,74.50129799398516",
      "latitude": "23.540435",
      "longitude": "74.501297",
      "pdf_page": 79
    },
    {
      "netc_plaza_code": "536276",
      "plaza_name": "Mor Toll Plaza",
      "concessionaire_type": "PF",
      "plaza_type": "TOLL",
      "plaza_sub_type": "STATE",
      "state_name": "Rajasthan",
      "city": "Malpura",
      "concessionaire_name": "M/s CoralAssociates",
      "geo_codes_raw": "26.157714573429097,75.41708249586681",
      "latitude": "26.157714",
      "longitude": "75.417082",
      "pdf_page": 79
    },
    {
      "netc_plaza_code": "536277",
      "plaza_name": "Sewa (Khareda)Toll Plaza",
      "concessionaire_type": "PF",
      "plaza_type": "TOLL",
      "plaza_sub_type": "STATE",
      "state_name": "Rajasthan",
      "city": "Chhan",
      "concessionaire_name": "M/s CoralAssociates",
      "geo_codes_raw": "26.532961137681614,76.84804313681198",
      "latitude": "26.532961",
      "longitude": "76.848043",
      "pdf_page": 79
    },
    {
      "netc_plaza_code": "536278",
      "plaza_name": "Chhan (MassiRiver) Toll Plaza",
      "concessionaire_type": "PF",
      "plaza_type": "TOLL",
      "plaza_sub_type": "STATE",
      "state_name": "Rajasthan",
      "city": "Dudu",
      "concessionaire_name": "M/s CoralAssociates",
      "geo_codes_raw": "26.56363825829634,75.2973741222691",
      "latitude": "26.563638",
      "longitude": "75.297374",
      "pdf_page": 79
    },
    {
      "netc_plaza_code": "536281",
      "plaza_name": "Udaliyawas Toll Plaza",
      "concessionaire_type": "PF",
      "plaza_type": "TOLL",
      "plaza_sub_type": "STATE",
      "state_name": "Rajasthan",
      "city": "Jodhpur",
      "concessionaire_name": "JAIBHOLEBABATOLLWAYS (P) Ltd",
      "geo_codes_raw": "26.249350781627314,73.77422054696109",
      "latitude": "26.249350",
      "longitude": "73.774220",
      "pdf_page": 79
    },
    {
      "netc_plaza_code": "536282",
      "plaza_name": "Mandala sojat Toll Plaza",
      "concessionaire_type": "PF",
      "plaza_type": "TOLL",
      "plaza_sub_type": "STATE",
      "state_name": "Rajasthan",
      "city": "Pali",
      "concessionaire_name": "JAIBHOLEBABATOLLWAYS (P) Ltd",
      "geo_codes_raw": "25.984355858928414,73.72942985713199",
      "latitude": "25.984355",
      "longitude": "73.729429",
      "pdf_page": 79
    },